# 
# Header Description:
# 
# Version: v3.1.1.2 Platform: 15 Manufacturer: OPPO Model: PKU110 GNSS Hardware Model Name: qcom;MPSS.DE.7.0-02024.3-PAKALA_GEN_PACK-1.81186.170;
# 
# Raw,utcTimeMillis,TimeNanos,LeapSecond,TimeUncertaintyNanos,FullBiasNanos,BiasNanos,BiasUncertaintyNanos,DriftNanosPerSecond,DriftUncertaintyNanosPerSecond,HardwareClockDiscontinuityCount,Svid,TimeOffsetNanos,State,ReceivedSvTimeNanos,ReceivedSvTimeUncertaintyNanos,Cn0DbHz,PseudorangeRateMetersPerSecond,PseudorangeRateUncertaintyMetersPerSecond,AccumulatedDeltaRangeState,AccumulatedDeltaRangeMeters,AccumulatedDeltaRangeUncertaintyMeters,CarrierFrequencyHz,CarrierCycles,CarrierPhase,CarrierPhaseUncertainty,MultipathIndicator,SnrInDb,ConstellationType,AgcDb,BasebandCn0DbHz,FullInterSignalBiasNanos,FullInterSignalBiasUncertaintyNanos,SatelliteInterSignalBiasNanos,SatelliteInterSignalBiasUncertaintyNanos,CodeType,ChipsetElapsedRealtimeNanos,IsFullTracking,SvPositionEcefXMeters,SvPositionEcefYMeters,SvPositionEcefZMeters,SvVelocityEcefXMetersPerSecond,SvVelocityEcefYMetersPerSecond,SvVelocityEcefZMetersPerSecond,SvClockBiasMeters,SvClockDriftMetersPerSecond,KlobucharAlpha0,KlobucharAlpha1,KlobucharAlpha2,KlobucharAlpha3,KlobucharBeta0,KlobucharBeta1,KlobucharBeta2,KlobucharBeta3
# 
# UncalAccel,utcTimeMillis,elapsedRealtimeNanos,UncalAccelXMps2,UncalAccelYMps2,UncalAccelZMps2,BiasXMps2,BiasYMps2,BiasZMps2,CalibrationAccuracy
# 
# Accel,utcTimeMillis,elapsedRealtimeNanos,AccelXMps2,AccelYMps2,AccelZMps2,CalibrationAccuracy
# 
# UncalGyro,utcTimeMillis,elapsedRealtimeNanos,UncalGyroXRadPerSec,UncalGyroYRadPerSec,UncalGyroZRadPerSec,DriftXRadPerSec,DriftYRadPerSec,DriftZRadPerSec,CalibrationAccuracy
# 
# Gyro,utcTimeMillis,elapsedRealtimeNanos,GyroXRadPerSec,GyroYRadPerSec,GyroZRadPerSec,CalibrationAccuracy
# 
# UncalMag,utcTimeMillis,elapsedRealtimeNanos,UncalMagXMicroT,UncalMagYMicroT,UncalMagZMicroT,BiasXMicroT,BiasYMicroT,BiasZMicroT,CalibrationAccuracy
# 
# Mag,utcTimeMillis,elapsedRealtimeNanos,MagXMicroT,MagYMicroT,MagZMicroT,CalibrationAccuracy
# 
# Pressure,utcTimeMillis,elapsedRealtimeNanos,PressureHpa,CalibrationAccuracy
# 
# OrientationDeg,utcTimeMillis,elapsedRealtimeNanos,yawDeg,rollDeg,pitchDeg,CalibrationAccuracy
# 
# Fix,Provider,LatitudeDegrees,LongitudeDegrees,AltitudeMeters,SpeedMps,AccuracyMeters,BearingDegrees,UnixTimeMillis,SpeedAccuracyMps,BearingAccuracyDegrees,elapsedRealtimeNanos,VerticalAccuracyMeters,MockLocation,NumberOfUsedSignals,VerticalSpeedAccuracyMps,SolutionType
# 
# Nav,Svid,Type,Status,MessageId,Sub-messageId,Data(Bytes)
# 
# Status,UnixTimeMillis,SignalCount,SignalIndex,ConstellationType,Svid,CarrierFrequencyHz,Cn0DbHz,AzimuthDegrees,ElevationDegrees,UsedInFix,HasAlmanacData,HasEphemerisData,BasebandCn0DbHz
# 
# Agc,utcTimeMillis,TimeNanos,LeapSecond,TimeUncertaintyNanos,FullBiasNanos,BiasNanos,BiasUncertaintyNanos,DriftNanosPerSecond,DriftUncertaintyNanosPerSecond,HardwareClockDiscontinuityCount,AgcDb,CarrierFrequencyHz,ConstellationType
# 
# GameRotationVector,utcTimeMillis,elapsedRealtimeNanos,x,y,z,w
# 
Fix,NLP,45.0531005000,7.6563907000,299.1000061035156,,36.561,,1774347517474,,,55028115000000,2.373213,0,,,
Status,,83,0,1,5,1575420030,22.50,65.331696,19.947264,0,1,1,18.9
Status,,83,1,1,25,1575420030,22.80,122.4958,28.010847,0,1,1,19.199999
Status,,83,2,1,26,1575420030,19.80,301.52396,56.427513,1,1,1,16.199999
Status,,83,3,1,28,1575420030,19.90,216.56403,42.907173,1,1,1,16.3
Status,,83,4,1,31,1575420030,24.90,258.043,50.65637,1,1,1,21.3
Status,,83,5,1,4,1575420030,0.00,311.85754,4.910888,0,1,1,0.0
Status,,83,6,1,16,1575420030,0.00,301.369,23.29987,1,1,1,0.0
Status,,83,7,1,18,1575420030,0.00,165.96408,59.126564,1,1,1,0.0
Status,,83,8,1,21,1575420030,0.00,39.3133,9.626486,0,1,1,0.0
Status,,83,9,1,23,1575420030,0.00,152.58769,0.5621748,0,1,1,0.0
Status,,83,10,1,27,1575420030,0.00,257.45883,2.2172463,0,1,1,0.0
Status,,83,11,1,29,1575420030,0.00,57.82374,51.817657,1,1,1,0.0
Status,,83,12,3,14,1598062460,0.00,140.27553,17.704935,0,1,0,0.0
Status,,83,13,3,18,1600312450,0.00,216.27713,50.794895,1,1,0,0.0
Status,,83,14,3,16,1601437440,0.00,323.49643,48.72767,1,1,0,0.0
Status,,83,15,3,15,1602000000,0.00,135.00887,71.24882,1,1,0,0.0
Status,,83,16,3,24,1603124990,0.00,37.716587,20.019047,1,1,0,0.0
Status,,83,17,3,19,1603687550,0.00,216.04408,0.2477132,0,1,0,0.0
Status,,83,18,3,17,1604249980,0.00,35.15994,76.51733,0,1,0,0.0
Status,,83,19,3,7,1604812540,0.00,325.94406,3.350826,0,1,0,0.0
Status,,83,20,3,8,1605374980,0.00,12.79673,5.1302896,0,1,0,0.0
Status,,83,21,5,43,1561097980,28.30,228.31924,56.28878,1,1,1,24.0
Status,,83,22,5,23,1561097980,19.90,295.65173,55.7634,1,1,1,15.599999
Status,,83,23,5,2,1561097980,0.00,100.33494,0.07997173,0,1,0,0.0
Status,,83,24,5,5,1561097980,0.00,120.88697,16.402765,0,1,0,0.0
Status,,83,25,5,8,1561097980,0.00,67.590164,23.663324,0,1,0,0.0
Status,,83,26,5,10,1561097980,0.00,76.27286,0.6282919,0,1,0,0.0
Status,,83,27,5,11,1561097980,0.00,167.36609,85.7855,1,1,0,0.0
Status,,83,28,5,12,1561097980,0.00,51.51743,35.854797,0,1,0,0.0
Status,,83,29,5,13,1561097980,0.00,79.25375,23.517141,0,1,0,0.0
Status,,83,30,5,24,1561097980,0.00,145.58708,8.659473,0,1,1,0.0
Status,,83,31,5,25,1561097980,0.00,175.58875,61.776314,1,1,0,0.0
Status,,83,32,5,28,1561097980,0.00,229.9807,1.8349562,0,1,0,0.0
Status,,83,33,5,34,1561097980,0.00,57.675804,62.231636,0,1,0,0.0
Status,,83,34,5,37,1561097980,0.00,316.00336,8.300457,0,1,0,0.0
Status,,83,35,5,38,1561097980,0.00,53.013676,20.684835,0,1,0,0.0
Status,,83,36,5,44,1561097980,0.00,53.467308,9.304974,0,1,0,0.0
Status,,83,37,5,60,1561097980,0.00,102.29299,4.0293584,0,1,0,0.0
Status,,83,38,6,2,1575420030,0.00,299.389,30.333933,1,1,1,0.0
Status,,83,39,6,3,1575420030,0.00,245.00227,6.96617,0,1,0,0.0
Status,,83,40,6,7,1575420030,0.00,340.10226,2.2596526,0,1,0,0.0
Status,,83,41,6,8,1575420030,0.00,293.39996,12.535529,1,1,1,0.0
Status,,83,42,6,10,1575420030,0.00,80.05467,56.654514,1,1,0,0.0
Status,,83,43,6,11,1575420030,0.00,138.77544,59.238605,0,1,0,0.0
Status,,83,44,6,12,1575420030,0.00,52.611816,38.78811,0,1,0,0.0
Status,,83,45,6,16,1575420030,0.00,108.20752,40.56148,1,1,0,0.0
Status,,83,46,6,18,1575420030,0.00,69.63509,58.051716,0,1,0,0.0
Status,,83,47,6,25,1575420030,0.00,1.8124231,82.425934,0,1,0,0.0
Status,,83,48,6,36,1575420030,0.00,188.57127,22.215736,1,1,1,0.0
Status,,83,49,1,26,1176450050,19.30,301.52396,56.427513,1,1,1,14.4
Status,,83,50,1,4,1176450050,0.00,311.85754,4.910888,0,1,1,0.0
Status,,83,51,1,18,1176450050,0.00,165.96408,59.126564,0,1,1,0.0
Status,,83,52,1,21,1176450050,0.00,39.3133,9.626486,0,1,1,0.0
Status,,83,53,1,23,1176450050,0.00,152.58769,0.5621748,0,1,1,0.0
Status,,83,54,1,25,1176450050,0.00,122.4958,28.010847,0,1,1,0.0
Status,,83,55,1,27,1176450050,0.00,257.45883,2.2172463,0,1,1,0.0
Status,,83,56,1,28,1176450050,0.00,216.56403,42.907173,0,1,1,0.0
Status,,83,57,6,2,1176450050,0.00,299.389,30.333933,1,1,1,0.0
Status,,83,58,6,3,1176450050,0.00,245.00227,6.96617,0,1,0,0.0
Status,,83,59,6,8,1176450050,0.00,293.39996,12.535529,1,1,1,0.0
Status,,83,60,6,10,1176450050,0.00,80.05467,56.654514,0,1,0,0.0
Status,,83,61,6,12,1176450050,0.00,52.611816,38.78811,0,1,0,0.0
Status,,83,62,6,16,1176450050,0.00,108.20752,40.56148,1,1,0,0.0
Status,,83,63,6,18,1176450050,0.00,69.63509,58.051716,0,1,0,0.0
Status,,83,64,6,25,1176450050,0.00,1.8124231,82.425934,0,1,0,0.0
Status,,83,65,6,36,1176450050,0.00,188.57127,22.215736,0,1,1,0.0
Status,,83,66,5,23,1176450050,23.50,295.65173,55.7634,1,1,1,19.0
Status,,83,67,5,24,1176450050,0.00,145.58708,8.659473,0,1,1,0.0
Status,,83,68,5,25,1176450050,0.00,175.58875,61.776314,0,1,0,0.0
Status,,83,69,5,28,1176450050,0.00,229.9807,1.8349562,0,1,0,0.0
Status,,83,70,5,34,1176450050,0.00,57.675804,62.231636,0,1,0,0.0
Status,,83,71,5,37,1176450050,0.00,316.00336,8.300457,0,1,0,0.0
Status,,83,72,5,38,1176450050,0.00,53.013676,20.684835,0,1,0,0.0
Status,,83,73,5,43,1176450050,0.00,228.31924,56.28878,1,1,1,0.0
Status,,83,74,5,44,1176450050,0.00,53.467308,9.304974,0,1,0,0.0
Status,,83,75,5,43,1575420030,25.50,228.31924,56.28878,1,1,1,18.5
Status,,83,76,5,23,1575420030,0.00,295.65173,55.7634,0,1,1,0.0
Status,,83,77,5,24,1575420030,0.00,145.58708,8.659473,0,1,1,0.0
Status,,83,78,5,25,1575420030,0.00,175.58875,61.776314,0,1,0,0.0
Status,,83,79,5,34,1575420030,0.00,57.675804,62.231636,0,1,0,0.0
Status,,83,80,5,37,1575420030,0.00,316.00336,8.300457,1,1,0,0.0
Status,,83,81,5,38,1575420030,0.00,53.013676,20.684835,0,1,0,0.0
Status,,83,82,5,44,1575420030,0.00,53.467308,9.304974,0,1,0,0.0
Raw,1774347520414,42771061000000,18,0.0,-1458339967353349060,-0.8334541320800781,448.78176413476467,12.918723960563138,29.45991888819191,11,5,0.0,16399,209938335443781,61,22.5,-107.65864562988281,1.121000051498413,16,0.0,0.0,1575420030,,,,0,,1,-49.76,18.9,0.0,0.0,,,C,55031050460153,1,930951.6366324686,20452825.37883341,16725790.124212747,-1381.8851075666346,-1658.911822110908,2087.9715753242835,-69179.98969910691,-0.0006372392090270296,0.000000021420419216156006,0.000000007450580596923828,-0.00000011920928955078125,0.0,122880.0,0.0,-262144.0,196608.0
Raw,1774347520414,42771061000000,18,0.0,-1458339967353349060,-0.8334541320800781,448.78176413476467,12.918723960563138,29.45991888819191,11,25,0.0,16399,209938337973430,53,22.8,619.4820556640625,1.1180000305175781,16,0.0,0.0,1575420030,,,,0,,1,-49.76,19.2,0.0,0.0,,,C,55031050460153,1,17421802.470350847,19643116.301651567,4427030.410084414,97.4096108618568,670.4590409228349,-3063.4614024685716,130425.30205569384,-0.000571435593883507,0.000000021420419216156006,0.000000007450580596923828,-0.00000011920928955078125,0.0,122880.0,0.0,-262144.0,196608.0
Raw,1774347520414,42771061000000,18,0.0,-1458339967353349060,-0.8334541320800781,448.78176413476467,12.918723960563138,29.45991888819191,11,26,0.0,16399,209938344453138,80,19.8,-329.5791320800781,2.2225000858306885,16,0.0,0.0,1575420030,,,,0,,1,-49.76,16.2,0.0,0.0,,,C,55031050460153,1,13719433.397093762,-8071296.174388073,21046412.74246402,1707.6128431355335,2141.014463477165,-248.61485441950532,-103334.35258187588,-0.002189497259678319,0.000000021420419216156006,0.000000007450580596923828,-0.00000011920928955078125,0.0,122880.0,0.0,-262144.0,196608.0
Raw,1774347520414,42771061000000,18,0.0,-1458339967353349060,-0.8334541320800781,448.78176413476467,12.918723960563138,29.45991888819191,11,28,0.0,16399,209938341007622,80,19.9,472.29937744140625,1.468000054359436,16,0.0,0.0,1575420030,,,,0,,1,-49.76,16.299999999999997,0.0,0.0,,,C,55031050460153,1,25143668.413489025,-6224536.436044518,5933890.246999494,771.9351936094819,203.12255055762955,-3056.698497236942,-171291.6160844484,0.002532486541895196,0.000000021420419216156006,0.000000007450580596923828,-0.00000011920928955078125,0.0,122880.0,0.0,-262144.0,196608.0
Raw,1774347520414,42771061000000,18,0.0,-1458339967353349060,-0.8334541320800781,448.78176413476467,12.918723960563138,29.45991888819191,11,31,0.0,16399,209938343148962,40,24.9,165.7267608642578,0.9889999628067017,16,0.0,0.0,1575420030,,,,0,,1,-49.76,21.299999999999997,0.0,0.0,,,C,55031050460153,1,19728897.052307133,-10675676.657026665,14170349.70703482,1843.4815313102938,155.11067651410974,-2371.320516558118,-47884.719473194324,0.0005820721344207413,0.000000021420419216156006,0.000000007450580596923828,-0.00000011920928955078125,0.0,122880.0,0.0,-262144.0,196608.0
Raw,1774347520414,42771061000000,18,0.0,-1458339967353349060,-0.8334541320800781,448.78176413476467,12.918723960563138,29.45991888819191,11,43,0.0,16399,209924339897947,27,28.3,-335.0320739746094,0.8100000023841858,16,0.0,0.0,1561097980,,,,0,,5,-54.86,24.0,-490.2978515625,16.179569244384766,,,I,55031050460153,1,24519481.38961547,-6055192.742217353,11828711.052080829,-1037.6039073852223,889.1965946424348,2603.685481846998,40377.591808628495,0.0001878915063571185,0.000000021420419216156006,0.000000007450580596923828,-0.00000011920928955078125,0.0,122880.0,0.0,-262144.0,196608.0
Raw,1774347520414,42771061000000,18,0.0,-1458339967353349060,-0.8334541320800781,448.78176413476467,12.918723960563138,29.45991888819191,11,23,0.0,16399,209924339097406,92,19.9,-262.671630859375,1.9300000667572021,16,0.0,0.0,1561097980,,,,0,,5,-54.86,15.599999999999998,-490.2978515625,16.179569244384766,,,I,55031050460153,1,15136441.94194685,-9436105.374322789,21465037.89094512,2128.335680671944,1225.0003303079318,-961.76350187663,-142516.4467237624,0.001319495408097282,0.000000021420419216156006,0.000000007450580596923828,-0.00000011920928955078125,0.0,122880.0,0.0,-262144.0,196608.0
Raw,1774347520414,42771061000000,18,0.0,-1458339967353349060,-0.8334541320800781,448.78176413476467,12.918723960563138,29.45991888819191,11,26,0.0,81935,209938344453131,20,19.3,-329.3397521972656,2.267500162124634,16,0.0,0.0,1176450050,,,,0,,1,-42.74,14.4,-3.415759801864624,4.1734771728515625,,,Q,55031050460153,1,13719433.3970818,-8071296.174403072,21046412.74246576,1707.6128431349211,2141.0144634779817,-248.61485441630876,-103334.35258187588,-0.002189497259678319,0.000000021420419216156006,0.000000007450580596923828,-0.00000011920928955078125,0.0,122880.0,0.0,-262144.0,196608.0
Raw,1774347520414,42771061000000,18,0.0,-1458339967353349060,-0.8334541320800781,448.78176413476467,12.918723960563138,29.45991888819191,11,23,0.0,16399,209924339097427,11,23.5,-261.7466125488281,1.0199999809265137,16,0.0,0.0,1176450050,,,,0,,5,-42.74,19.0,-480.4150390625,903.7850341796875,,,P,55031050460153,1,15136441.941991556,-9436105.374297054,21465037.890924923,2128.3356806715565,1225.0003303039925,-961.7635018848965,-142516.44672376238,0.001319495408097282,0.000000021420419216156006,0.000000007450580596923828,-0.00000011920928955078125,0.0,122880.0,0.0,-262144.0,196608.0
Raw,1774347520414,42771061000000,18,0.0,-1458339967353349060,-0.8334541320800781,448.78176413476467,12.918723960563138,29.45991888819191,11,43,0.0,16399,209924339897948,12,25.5,-334.8502502441406,1.0850000381469727,16,0.0,0.0,1575420030,,,,0,,5,-53.51,18.5,-473.81951904296875,902.0159912109375,,,P,55031050460153,1,24519481.389614422,-6055192.742216505,11828711.052083433,-1037.6039073854117,889.1965946426667,2603.6854818467805,40377.5918086285,0.0001878915063571185,0.000000021420419216156006,0.000000007450580596923828,-0.00000011920928955078125,0.0,122880.0,0.0,-262144.0,196608.0
Agc,1774347520414,42771061000000,18,0.0,-1458339967353349060,-0.8334541320800781,448.78176413476467,12.918723960563138,29.45991888819191,11,-49.76,1575420000,1
Agc,1774347520414,42771061000000,18,0.0,-1458339967353349060,-0.8334541320800781,448.78176413476467,12.918723960563138,29.45991888819191,11,-47.35,1602000000,3
Agc,1774347520414,42771061000000,18,0.0,-1458339967353349060,-0.8334541320800781,448.78176413476467,12.918723960563138,29.45991888819191,11,-54.86,1561098000,5
Agc,1774347520414,42771061000000,18,0.0,-1458339967353349060,-0.8334541320800781,448.78176413476467,12.918723960563138,29.45991888819191,11,-53.51,1575420000,6
Agc,1774347520414,42771061000000,18,0.0,-1458339967353349060,-0.8334541320800781,448.78176413476467,12.918723960563138,29.45991888819191,11,-42.74,1176450000,1
Agc,1774347520414,42771061000000,18,0.0,-1458339967353349060,-0.8334541320800781,448.78176413476467,12.918723960563138,29.45991888819191,11,-42.74,1176450000,4
Agc,1774347520414,42771061000000,18,0.0,-1458339967353349060,-0.8334541320800781,448.78176413476467,12.918723960563138,29.45991888819191,11,-42.74,1176450000,6
Agc,1774347520414,42771061000000,18,0.0,-1458339967353349060,-0.8334541320800781,448.78176413476467,12.918723960563138,29.45991888819191,11,-42.74,1176450000,5
Agc,1774347520414,42771061000000,18,0.0,-1458339967353349060,-0.8334541320800781,448.78176413476467,12.918723960563138,29.45991888819191,11,-53.51,1575420000,5
Status,,83,0,1,5,1575420030,27.80,65.323166,19.934767,0,1,1,24.199999
Status,,83,1,1,25,1575420030,22.80,122.49495,28.004934,0,1,1,19.199999
Status,,83,2,1,26,1575420030,23.00,301.49127,56.435013,1,1,1,19.4
Status,,83,3,1,28,1575420030,19.90,216.56403,42.907173,1,1,1,16.3
Status,,83,4,1,31,1575420030,23.00,258.043,50.65637,1,1,1,19.4
Status,,83,5,1,4,1575420030,0.00,311.8526,4.89908,0,1,1,0.0
Status,,83,6,1,16,1575420030,0.00,301.369,23.29987,1,1,1,0.0
Status,,83,7,1,18,1575420030,0.00,165.9185,59.12927,1,1,1,0.0
Status,,83,8,1,21,1575420030,0.00,39.3117,9.6137295,0,1,1,0.0
Status,,83,9,1,23,1575420030,0.00,152.58597,0.572014,0,1,1,0.0
Status,,83,10,1,27,1575420030,0.00,257.46558,2.2235332,0,1,1,0.0
Status,,83,11,1,29,1575420030,0.00,57.82374,51.817657,1,1,1,0.0
Status,,83,12,3,14,1598062460,0.00,140.27553,17.704935,0,1,0,0.0
Status,,83,13,3,18,1600312450,0.00,216.27713,50.794895,1,1,0,0.0
Status,,83,14,3,16,1601437440,0.00,323.49643,48.72767,1,1,0,0.0
Status,,83,15,3,15,1602000000,0.00,135.00887,71.24882,1,1,0,0.0
Status,,83,16,3,24,1603124990,0.00,37.716587,20.019047,1,1,0,0.0
Status,,83,17,3,19,1603687550,0.00,216.04408,0.2477132,0,1,0,0.0
Status,,83,18,3,17,1604249980,0.00,35.15994,76.51733,0,1,0,0.0
Status,,83,19,3,7,1604812540,0.00,325.94406,3.350826,0,1,0,0.0
Status,,83,20,3,8,1605374980,0.00,12.79673,5.1302896,0,1,0,0.0
Status,,83,21,5,43,1561097980,28.30,228.31924,56.28878,1,1,1,24.0
Status,,83,22,5,23,1561097980,23.10,295.65173,55.7634,1,1,1,18.8
Status,,83,23,5,8,1561097980,21.70,67.590164,23.663324,0,1,0,17.400002
Status,,83,24,5,2,1561097980,0.00,100.33494,0.07997173,0,1,0,0.0
Status,,83,25,5,5,1561097980,0.00,120.88697,16.402765,0,1,0,0.0
Status,,83,26,5,10,1561097980,0.00,76.27286,0.6282919,0,1,0,0.0
Status,,83,27,5,11,1561097980,0.00,167.36609,85.7855,1,1,0,0.0
Status,,83,28,5,12,1561097980,0.00,51.51743,35.854797,0,1,0,0.0
Status,,83,29,5,13,1561097980,0.00,79.25375,23.517141,0,1,0,0.0
Status,,83,30,5,24,1561097980,0.00,145.58708,8.659473,0,1,1,0.0
Status,,83,31,5,25,1561097980,0.00,175.58875,61.776314,1,1,0,0.0
Status,,83,32,5,28,1561097980,0.00,229.9807,1.8349562,0,1,0,0.0
Status,,83,33,5,34,1561097980,0.00,57.675804,62.231636,0,1,0,0.0
Status,,83,34,5,37,1561097980,0.00,316.00336,8.300457,0,1,0,0.0
Status,,83,35,5,38,1561097980,0.00,53.013676,20.684835,0,1,0,0.0
Status,,83,36,5,44,1561097980,0.00,53.467308,9.304974,0,1,0,0.0
Status,,83,37,5,60,1561097980,0.00,102.29299,4.0293584,0,1,0,0.0
Status,,83,38,6,2,1575420030,21.00,299.389,30.333933,1,1,1,16.7
Status,,83,39,6,3,1575420030,0.00,245.00227,6.96617,0,1,0,0.0
Status,,83,40,6,7,1575420030,0.00,340.10226,2.2596526,0,1,0,0.0
Status,,83,41,6,8,1575420030,0.00,293.39996,12.535529,1,1,1,0.0
Status,,83,42,6,10,1575420030,0.00,80.05467,56.654514,1,1,0,0.0
Status,,83,43,6,11,1575420030,0.00,138.77544,59.238605,0,1,0,0.0
Status,,83,44,6,12,1575420030,0.00,52.611816,38.78811,0,1,0,0.0
Status,,83,45,6,16,1575420030,0.00,108.20752,40.56148,1,1,0,0.0
Status,,83,46,6,18,1575420030,0.00,69.63509,58.051716,0,1,0,0.0
Status,,83,47,6,25,1575420030,0.00,1.8124231,82.425934,0,1,0,0.0
Status,,83,48,6,36,1575420030,0.00,188.57127,22.215736,1,1,1,0.0
Status,,83,49,1,25,1176450050,20.00,122.49495,28.004934,0,1,1,15.1
Status,,83,50,1,26,1176450050,19.30,301.49127,56.435013,1,1,1,14.4
Status,,83,51,1,4,1176450050,0.00,311.8526,4.89908,0,1,1,0.0
Status,,83,52,1,18,1176450050,0.00,165.9185,59.12927,0,1,1,0.0
Status,,83,53,1,21,1176450050,0.00,39.3117,9.6137295,0,1,1,0.0
Status,,83,54,1,23,1176450050,0.00,152.58597,0.572014,0,1,1,0.0
Status,,83,55,1,27,1176450050,0.00,257.46558,2.2235332,0,1,1,0.0
Status,,83,56,1,28,1176450050,0.00,216.56403,42.907173,0,1,1,0.0
Status,,83,57,6,2,1176450050,0.00,299.389,30.333933,1,1,1,0.0
Status,,83,58,6,3,1176450050,0.00,245.00227,6.96617,0,1,0,0.0
Status,,83,59,6,8,1176450050,0.00,293.39996,12.535529,1,1,1,0.0
Status,,83,60,6,10,1176450050,0.00,80.05467,56.654514,0,1,0,0.0
Status,,83,61,6,12,1176450050,0.00,52.611816,38.78811,0,1,0,0.0
Status,,83,62,6,16,1176450050,0.00,108.20752,40.56148,1,1,0,0.0
Status,,83,63,6,18,1176450050,0.00,69.63509,58.051716,0,1,0,0.0
Status,,83,64,6,25,1176450050,0.00,1.8124231,82.425934,0,1,0,0.0
Status,,83,65,6,36,1176450050,0.00,188.57127,22.215736,0,1,1,0.0
Status,,83,66,5,23,1176450050,27.50,295.65173,55.7634,1,1,1,23.0
Status,,83,67,5,24,1176450050,0.00,145.58708,8.659473,0,1,1,0.0
Status,,83,68,5,25,1176450050,0.00,175.58875,61.776314,0,1,0,0.0
Status,,83,69,5,28,1176450050,0.00,229.9807,1.8349562,0,1,0,0.0
Status,,83,70,5,34,1176450050,0.00,57.675804,62.231636,0,1,0,0.0
Status,,83,71,5,37,1176450050,0.00,316.00336,8.300457,0,1,0,0.0
Status,,83,72,5,38,1176450050,0.00,53.013676,20.684835,0,1,0,0.0
Status,,83,73,5,43,1176450050,0.00,228.31924,56.28878,1,1,1,0.0
Status,,83,74,5,44,1176450050,0.00,53.467308,9.304974,0,1,0,0.0
Status,,83,75,5,43,1575420030,27.50,228.31924,56.28878,1,1,1,20.5
Status,,83,76,5,23,1575420030,0.00,295.65173,55.7634,0,1,1,0.0
Status,,83,77,5,24,1575420030,0.00,145.58708,8.659473,0,1,1,0.0
Status,,83,78,5,25,1575420030,0.00,175.58875,61.776314,0,1,0,0.0
Status,,83,79,5,34,1575420030,0.00,57.675804,62.231636,0,1,0,0.0
Status,,83,80,5,37,1575420030,0.00,316.00336,8.300457,1,1,0,0.0
Status,,83,81,5,38,1575420030,0.00,53.013676,20.684835,0,1,0,0.0
Status,,83,82,5,44,1575420030,0.00,53.467308,9.304974,0,1,0,0.0
Raw,1774347521414,42772061000000,18,0.0,-1458339967353349088,-0.8178348541259766,151.3352763140574,9.59335403397578,6.891077871004259,11,5,0.0,16399,209939335444166,27,27.8,-106.00308990478516,1.3009999990463257,16,0.0,0.0,1575420030,,,,0,,1,-50.34,24.2,0.0,0.0,,,C,55032044738486,1,929569.6224588472,20451166.40095501,16727877.916168049,-1382.1421749850665,-1659.0426466145905,2087.6107200884653,-69179.9903363673,-0.0006372810894390568,0.000000021420419216156006,0.000000007450580596923828,-0.00000011920928955078125,0.0,122880.0,0.0,-262144.0,196608.0
Raw,1774347521414,42772061000000,18,0.0,-1458339967353349088,-0.8178348541259766,151.3352763140574,9.59335403397578,6.891077871004259,11,8,0.0,16399,209925282637663,70,21.7,-282.67254638671875,1.6044999361038208,16,0.0,0.0,1561097980,,,,0,,5,-55.22,17.4,-490.2978515625,16.179569244384766,,,I,55032044738486,1,1457684.8001351338,33789076.42728647,25365778.370637637,619.3082862427991,-1530.4605375035733,1992.9774797570915,-163958.41216694962,0.004516767134191468,0.000000021420419216156006,0.000000007450580596923828,-0.00000011920928955078125,0.0,122880.0,0.0,-262144.0,196608.0
Raw,1774347521414,42772061000000,18,0.0,-1458339967353349088,-0.8178348541259766,151.3352763140574,9.59335403397578,6.891077871004259,11,25,0.0,81935,209939337971207,18,20.0,621.8441162109375,1.7769999504089355,16,0.0,0.0,1176450050,,,,0,,1,-42.27,15.1,-3.415759801864624,4.1736674308776855,,,Q,55032044738486,1,17421899.79100041,19643786.59692881,4423966.908752717,97.23211314716391,670.1344966181981,-3063.554870415111,130425.30148435138,-0.0005712518759537488,0.000000021420419216156006,0.000000007450580596923828,-0.00000011920928955078125,0.0,122880.0,0.0,-262144.0,196608.0
Agc,1774347521414,42772061000000,18,0.0,-1458339967353349088,-0.8178348541259766,151.3352763140574,9.59335403397578,6.891077871004259,11,-50.34,1575420000,1
Agc,1774347521414,42772061000000,18,0.0,-1458339967353349088,-0.8178348541259766,151.3352763140574,9.59335403397578,6.891077871004259,11,-47.56,1602000000,3
Agc,1774347521414,42772061000000,18,0.0,-1458339967353349088,-0.8178348541259766,151.3352763140574,9.59335403397578,6.891077871004259,11,-55.22,1561098000,5
Agc,1774347521414,42772061000000,18,0.0,-1458339967353349088,-0.8178348541259766,151.3352763140574,9.59335403397578,6.891077871004259,11,-54.08,1575420000,6
Agc,1774347521414,42772061000000,18,0.0,-1458339967353349088,-0.8178348541259766,151.3352763140574,9.59335403397578,6.891077871004259,11,-42.27,1176450000,1
Agc,1774347521414,42772061000000,18,0.0,-1458339967353349088,-0.8178348541259766,151.3352763140574,9.59335403397578,6.891077871004259,11,-42.27,1176450000,4
Agc,1774347521414,42772061000000,18,0.0,-1458339967353349088,-0.8178348541259766,151.3352763140574,9.59335403397578,6.891077871004259,11,-42.27,1176450000,6
Agc,1774347521414,42772061000000,18,0.0,-1458339967353349088,-0.8178348541259766,151.3352763140574,9.59335403397578,6.891077871004259,11,-42.27,1176450000,5
Agc,1774347521414,42772061000000,18,0.0,-1458339967353349088,-0.8178348541259766,151.3352763140574,9.59335403397578,6.891077871004259,11,-54.08,1575420000,5
Fix,GPS,45.0528083700,7.6561891400,300.89794921875,0.0,18.518414,,1774347522000,0.8092498,,55032630736610,17.40153,0,,,
Fix,FLP,45.0528966000,7.6562646000,299.1000061035156,0.2343942,46.335,85.67218,1774347521920,0.22710413,180.0,55032630736610,2.4183705,0,,,
Status,1774347522000,83,0,1,5,1575420030,27.80,65.323166,19.934767,1,1,1,24.199999
Status,1774347522000,83,1,1,25,1575420030,22.80,122.49495,28.004934,1,1,1,19.199999
Status,1774347522000,83,2,1,26,1575420030,21.70,301.49127,56.435013,1,1,1,18.1
Status,1774347522000,83,3,1,28,1575420030,19.90,216.56403,42.907173,1,1,1,16.3
Status,1774347522000,83,4,1,31,1575420030,22.40,258.043,50.65637,1,1,1,18.8
Status,1774347522000,83,5,1,4,1575420030,0.00,311.8526,4.89908,0,1,1,0.0
Status,1774347522000,83,6,1,16,1575420030,0.00,301.369,23.29987,0,1,1,0.0
Status,1774347522000,83,7,1,18,1575420030,0.00,165.9185,59.12927,0,1,1,0.0
Status,1774347522000,83,8,1,21,1575420030,0.00,39.3117,9.6137295,0,1,1,0.0
Status,1774347522000,83,9,1,23,1575420030,0.00,152.58597,0.572014,0,1,1,0.0
Status,1774347522000,83,10,1,27,1575420030,0.00,257.46558,2.2235332,0,1,1,0.0
Status,1774347522000,83,11,1,29,1575420030,0.00,57.82374,51.817657,0,1,1,0.0
Status,1774347522000,83,12,3,16,1601437440,19.30,323.49643,48.72767,0,1,0,15.299999
Status,1774347522000,83,13,3,14,1598062460,0.00,140.27553,17.704935,0,1,0,0.0
Status,1774347522000,83,14,3,18,1600312450,0.00,216.27713,50.794895,0,1,0,0.0
Status,1774347522000,83,15,3,15,1602000000,0.00,135.00887,71.24882,0,1,0,0.0
Status,1774347522000,83,16,3,24,1603124990,0.00,37.716587,20.019047,0,1,0,0.0
Status,1774347522000,83,17,3,19,1603687550,0.00,216.04408,0.2477132,0,1,0,0.0
Status,1774347522000,83,18,3,17,1604249980,0.00,35.15994,76.51733,0,1,0,0.0
Status,1774347522000,83,19,3,7,1604812540,0.00,325.94406,3.350826,0,1,0,0.0
Status,1774347522000,83,20,3,8,1605374980,0.00,12.79673,5.1302896,0,1,0,0.0
Status,1774347522000,83,21,5,43,1561097980,22.40,228.31924,56.28878,1,1,1,18.099998
Status,1774347522000,83,22,5,23,1561097980,22.20,295.65173,55.7634,1,1,1,17.900002
Status,1774347522000,83,23,5,8,1561097980,21.70,67.590164,23.663324,1,1,0,17.400002
Status,1774347522000,83,24,5,2,1561097980,0.00,100.33494,0.07997173,0,1,0,0.0
Status,1774347522000,83,25,5,5,1561097980,0.00,120.88697,16.402765,0,1,0,0.0
Status,1774347522000,83,26,5,10,1561097980,0.00,76.27286,0.6282919,0,1,0,0.0
Status,1774347522000,83,27,5,11,1561097980,0.00,167.36609,85.7855,0,1,0,0.0
Status,1774347522000,83,28,5,12,1561097980,0.00,51.51743,35.854797,0,1,0,0.0
Status,1774347522000,83,29,5,13,1561097980,0.00,79.25375,23.517141,0,1,0,0.0
Status,1774347522000,83,30,5,24,1561097980,0.00,145.58708,8.659473,0,1,1,0.0
Status,1774347522000,83,31,5,25,1561097980,0.00,175.58875,61.776314,0,1,0,0.0
Status,1774347522000,83,32,5,28,1561097980,0.00,229.9807,1.8349562,0,1,0,0.0
Status,1774347522000,83,33,5,34,1561097980,0.00,57.675804,62.231636,0,1,0,0.0
Status,1774347522000,83,34,5,37,1561097980,0.00,316.00336,8.300457,0,1,0,0.0
Status,1774347522000,83,35,5,38,1561097980,0.00,53.013676,20.684835,0,1,0,0.0
Status,1774347522000,83,36,5,44,1561097980,0.00,53.467308,9.304974,0,1,0,0.0
Status,1774347522000,83,37,5,60,1561097980,0.00,102.29299,4.0293584,0,1,0,0.0
Status,1774347522000,83,38,6,2,1575420030,22.90,299.389,30.333933,1,1,1,18.599998
Status,1774347522000,83,39,6,3,1575420030,0.00,245.00227,6.96617,0,1,0,0.0
Status,1774347522000,83,40,6,7,1575420030,0.00,340.10226,2.2596526,0,1,0,0.0
Status,1774347522000,83,41,6,8,1575420030,0.00,293.39996,12.535529,0,1,1,0.0
Status,1774347522000,83,42,6,10,1575420030,0.00,80.05467,56.654514,0,1,0,0.0
Status,1774347522000,83,43,6,11,1575420030,0.00,138.77544,59.238605,0,1,0,0.0
Status,1774347522000,83,44,6,12,1575420030,0.00,52.611816,38.78811,0,1,0,0.0
Status,1774347522000,83,45,6,16,1575420030,0.00,108.20752,40.56148,0,1,0,0.0
Status,1774347522000,83,46,6,18,1575420030,0.00,69.63509,58.051716,0,1,0,0.0
Status,1774347522000,83,47,6,25,1575420030,0.00,1.8124231,82.425934,0,1,0,0.0
Status,1774347522000,83,48,6,36,1575420030,0.00,188.57127,22.215736,0,1,1,0.0
Status,1774347522000,83,49,1,25,1176450050,20.00,122.49495,28.004934,1,1,1,15.1
Status,1774347522000,83,50,1,26,1176450050,22.60,301.49127,56.435013,1,1,1,17.7
Status,1774347522000,83,51,1,28,1176450050,17.90,216.56403,42.907173,0,1,1,13.0
Status,1774347522000,83,52,1,4,1176450050,0.00,311.8526,4.89908,0,1,1,0.0
Status,1774347522000,83,53,1,18,1176450050,0.00,165.9185,59.12927,0,1,1,0.0
Status,1774347522000,83,54,1,21,1176450050,0.00,39.3117,9.6137295,0,1,1,0.0
Status,1774347522000,83,55,1,23,1176450050,0.00,152.58597,0.572014,0,1,1,0.0
Status,1774347522000,83,56,1,27,1176450050,0.00,257.46558,2.2235332,0,1,1,0.0
Status,1774347522000,83,57,6,2,1176450050,20.10,299.389,30.333933,0,1,1,14.8
Status,1774347522000,83,58,6,3,1176450050,0.00,245.00227,6.96617,0,1,0,0.0
Status,1774347522000,83,59,6,8,1176450050,0.00,293.39996,12.535529,0,1,1,0.0
Status,1774347522000,83,60,6,10,1176450050,0.00,80.05467,56.654514,0,1,0,0.0
Status,1774347522000,83,61,6,12,1176450050,0.00,52.611816,38.78811,0,1,0,0.0
Status,1774347522000,83,62,6,16,1176450050,0.00,108.20752,40.56148,0,1,0,0.0
Status,1774347522000,83,63,6,18,1176450050,0.00,69.63509,58.051716,0,1,0,0.0
Status,1774347522000,83,64,6,25,1176450050,0.00,1.8124231,82.425934,0,1,0,0.0
Status,1774347522000,83,65,6,36,1176450050,0.00,188.57127,22.215736,0,1,1,0.0
Status,1774347522000,83,66,5,23,1176450050,25.90,295.65173,55.7634,1,1,1,21.4
Status,1774347522000,83,67,5,24,1176450050,0.00,145.58708,8.659473,0,1,1,0.0
Status,1774347522000,83,68,5,25,1176450050,0.00,175.58875,61.776314,0,1,0,0.0
Status,1774347522000,83,69,5,28,1176450050,0.00,229.9807,1.8349562,0,1,0,0.0
Status,1774347522000,83,70,5,34,1176450050,0.00,57.675804,62.231636,0,1,0,0.0
Status,1774347522000,83,71,5,37,1176450050,0.00,316.00336,8.300457,0,1,0,0.0
Status,1774347522000,83,72,5,38,1176450050,0.00,53.013676,20.684835,0,1,0,0.0
Status,1774347522000,83,73,5,43,1176450050,0.00,228.31924,56.28878,0,1,1,0.0
Status,1774347522000,83,74,5,44,1176450050,0.00,53.467308,9.304974,0,1,0,0.0
Status,1774347522000,83,75,5,23,1575420030,21.30,295.65173,55.7634,0,1,1,14.299999
Status,1774347522000,83,76,5,38,1575420030,20.30,53.013676,20.684835,0,1,0,13.299999
Status,1774347522000,83,77,5,43,1575420030,27.90,228.31924,56.28878,1,1,1,20.9
Status,1774347522000,83,78,5,24,1575420030,0.00,145.58708,8.659473,0,1,1,0.0
Status,1774347522000,83,79,5,25,1575420030,0.00,175.58875,61.776314,0,1,0,0.0
Status,1774347522000,83,80,5,34,1575420030,0.00,57.675804,62.231636,0,1,0,0.0
Status,1774347522000,83,81,5,37,1575420030,0.00,316.00336,8.300457,0,1,0,0.0
Status,1774347522000,83,82,5,44,1575420030,0.00,53.467308,9.304974,0,1,0,0.0
Raw,1774347522414,42773061000000,18,0.0,-1458339967353349073,-0.4398365020751953,153.57966185547411,10.778863381143658,16.989411660038712,11,26,0.0,16399,209940344455309,61,21.7,-326.4012145996094,1.1424999237060547,16,0.0,0.0,1575420030,,,,0,,1,-50.3,18.099999999999998,0.0,0.0,,,C,55033050238590,1,13722848.801719451,-8067014.374683804,21045914.599101458,1707.7880458752725,2140.7805605201047,-249.52796260851687,-103334.35696061054,-0.002189232618547976,0.000000021420419216156006,0.000000007450580596923828,-0.00000011920928955078125,0.0,122880.0,0.0,-262144.0,196608.0
Raw,1774347522414,42773061000000,18,0.0,-1458339967353349073,-0.4398365020751953,153.57966185547411,10.778863381143658,16.989411660038712,11,31,0.0,16399,209940343147872,61,22.4,166.2405548095703,1.0609999895095825,16,0.0,0.0,1575420030,,,,0,,1,-50.3,18.799999999999997,0.0,0.0,,,C,55033050238590,1,19732583.426393,-10675366.631434143,14165606.463789027,1842.8945357630587,154.91511113718101,-2371.925279614551,-47884.718308734715,0.0005823880928801373,0.000000021420419216156006,0.000000007450580596923828,-0.00000011920928955078125,0.0,122880.0,0.0,-262144.0,196608.0
Raw,1774347522414,42773061000000,18,0.0,-1458339967353349073,-0.4398365020751953,153.57966185547411,10.778863381143658,16.989411660038712,11,16,0.0,49359,47922346387535,92,19.3,-524.3905029296875,2.5855000019073486,16,0.0,0.0,1601437440,,,,0,,3,-47.45,15.3,4872.984375,16.29054069519043,,,C,55033050238590,1,8692410.38759603,-6899158.980978615,22973313.03342698,2455.24010951653,1964.0439534025184,-342.92159115849614,14044.275065253345,0.0002726596521824831,0.000000021420419216156006,0.000000007450580596923828,-0.00000011920928955078125,0.0,122880.0,0.0,-262144.0,196608.0
Raw,1774347522414,42773061000000,18,0.0,-1458339967353349073,-0.4398365020751953,153.57966185547411,10.778863381143658,16.989411660038712,11,43,0.0,16399,209926339900168,61,22.4,-334.76324462890625,1.6850000619888306,16,0.0,0.0,1561097980,,,,0,,5,-55.11,18.099999999999998,-490.2978515625,16.179569244384766,,,I,55033050238590,1,24517405.79855009,-6053413.886232134,11833917.993957778,-1037.9848216334722,889.6574259540877,2603.2505808949604,40377.59218440557,0.0001878851471701637,0.000000021420419216156006,0.000000007450580596923828,-0.00000011920928955078125,0.0,122880.0,0.0,-262144.0,196608.0
Raw,1774347522414,42773061000000,18,0.0,-1458339967353349073,-0.4398365020751953,153.57966185547411,10.778863381143658,16.989411660038712,11,23,0.0,16399,209926339099141,70,22.2,-261.2505187988281,1.0850000381469727,16,0.0,0.0,1561097980,,,,0,,5,-55.11,17.9,-490.2978515625,16.179569244384766,,,I,55033050238590,1,15140698.580208968,-9433655.746715128,21463113.575098615,2128.29885213268,1224.6251434747403,-962.5506635304432,-142516.4440847666,0.0013194981147535145,0.000000021420419216156006,0.000000007450580596923828,-0.00000011920928955078125,0.0,122880.0,0.0,-262144.0,196608.0
Raw,1774347522414,42773061000000,18,0.0,-1458339967353349073,-0.4398365020751953,153.57966185547411,10.778863381143658,16.989411660038712,11,2,0.0,17423,209940328103817,61,22.9,-425.8677062988281,1.125499963760376,16,0.0,0.0,1575420030,,,,0,,6,-54.1,18.599999999999998,-0.9669813513755798,16.223726272583008,,,C,55033050238590,1,8528745.793299656,-18474147.69740624,21480554.785889477,802.7093411915582,2001.9945616640293,1403.5571483814513,8220.620776599184,0.0008359210751223145,0.000000021420419216156006,0.000000007450580596923828,-0.00000011920928955078125,0.0,122880.0,0.0,-262144.0,196608.0
Raw,1774347522414,42773061000000,18,0.0,-1458339967353349073,-0.4398365020751953,153.57966185547411,10.778863381143658,16.989411660038712,11,26,0.0,81935,209940344455306,14,22.6,-327.72161865234375,1.7675000429153442,16,0.0,0.0,1176450050,,,,0,,1,-42.14,17.700000000000003,-3.415759801864624,4.173857688903809,,,Q,55033050238590,1,13722848.801714325,-8067014.374690236,21045914.599102207,1707.7880458750108,2140.780560520455,-249.52796260714672,-103334.35696061054,-0.002189232618547976,0.000000021420419216156006,0.000000007450580596923828,-0.00000011920928955078125,0.0,122880.0,0.0,-262144.0,196608.0
Raw,1774347522414,42773061000000,18,0.0,-1458339967353349073,-0.4398365020751953,153.57966185547411,10.778863381143658,16.989411660038712,11,28,0.0,81935,209940341004484,23,17.9,473.12646484375,3.203000068664551,16,0.0,0.0,1176450050,,,,0,,1,-42.14,12.999999999999998,-3.415759801864624,4.173857688903809,,,Q,55033050238590,1,25145211.539834626,-6224130.218417635,5927776.607527274,771.1935636711103,203.09574755421434,-3056.950524045256,-171291.61101948156,0.0025324882299173623,0.000000021420419216156006,0.000000007450580596923828,-0.00000011920928955078125,0.0,122880.0,0.0,-262144.0,196608.0
Raw,1774347522414,42773061000000,18,0.0,-1458339967353349073,-0.4398365020751953,153.57966185547411,10.778863381143658,16.989411660038712,11,2,0.0,81935,209940328103788,20,20.1,-426.12347412109375,2.5434999465942383,16,0.0,0.0,1176450050,,,,0,,6,-42.14,14.8,-24.291391372680664,313.9948425292969,,,Q,55033050238590,1,8528745.793275699,-18474147.69746594,21480554.785847634,802.7093411854175,2001.9945616619734,1403.5571483913066,8220.864283316661,0.0008316607691085665,0.000000021420419216156006,0.000000007450580596923828,-0.00000011920928955078125,0.0,122880.0,0.0,-262144.0,196608.0
Raw,1774347522414,42773061000000,18,0.0,-1458339967353349073,-0.4398365020751953,153.57966185547411,10.778863381143658,16.989411660038712,11,23,0.0,16399,209926339099166,9,25.9,-261.02874755859375,1.0033560991287231,16,0.0,0.0,1176450050,,,,0,,5,-42.14,21.4,-480.4462890625,314.072998046875,,,P,55033050238590,1,15140698.580262186,-9433655.746684501,21463113.57507455,2128.2988521322172,1224.625143470051,-962.5506635402826,-142516.44408476658,0.0013194981147535145,0.000000021420419216156006,0.000000007450580596923828,-0.00000011920928955078125,0.0,122880.0,0.0,-262144.0,196608.0
Raw,1774347522414,42773061000000,18,0.0,-1458339967353349073,-0.4398365020751953,153.57966185547411,10.778863381143658,16.989411660038712,11,23,0.0,16399,209926339099115,20,21.3,-261.4635009765625,2.75,16,0.0,0.0,1575420030,,,,0,,5,-54.1,14.3,-473.85076904296875,312.3040771484375,,,P,55033050238590,1,15140698.580153637,-9433655.746746976,21463113.57512364,2128.2988521331613,1224.6251434796156,-962.5506635202114,-142516.44408476664,0.0013194981147535145,0.000000021420419216156006,0.000000007450580596923828,-0.00000011920928955078125,0.0,122880.0,0.0,-262144.0,196608.0
Raw,1774347522414,42773061000000,18,0.0,-1458339967353349073,-0.4398365020751953,153.57966185547411,10.778863381143658,16.989411660038712,11,38,0.0,16399,209926282515994,23,20.3,-160.874267578125,2.8595001697540283,16,0.0,0.0,1575420030,,,,0,,5,-54.1,13.3,-473.85076904296875,312.3040771484375,,,P,55033050238590,1,-5311071.429659514,29146092.75213205,30146398.054642633,143.92576836192745,-1460.8590220098836,1437.4744162308014,84046.47529949572,0.0007477207545889542,0.000000021420419216156006,0.000000007450580596923828,-0.00000011920928955078125,0.0,122880.0,0.0,-262144.0,196608.0
Raw,1774347522414,42773061000000,18,0.0,-1458339967353349073,-0.4398365020751953,153.57966185547411,10.778863381143658,16.989411660038712,11,43,0.0,16399,209926339900207,10,27.9,-333.8190612792969,0.2092432826757431,16,0.0,0.0,1575420030,,,,0,,5,-54.1,20.9,-473.85076904296875,312.3040771484375,,,P,55033050238590,1,24517405.798509613,-6053413.886197433,11833917.994059306,-1037.9848216408984,889.657425963075,2603.250580886478,40377.59218440558,0.0001878851471701637,0.000000021420419216156006,0.000000007450580596923828,-0.00000011920928955078125,0.0,122880.0,0.0,-262144.0,196608.0
Agc,1774347522414,42773061000000,18,0.0,-1458339967353349073,-0.4398365020751953,153.57966185547411,10.778863381143658,16.989411660038712,11,-50.3,1575420000,1
Agc,1774347522414,42773061000000,18,0.0,-1458339967353349073,-0.4398365020751953,153.57966185547411,10.778863381143658,16.989411660038712,11,-47.45,1602000000,3
Agc,1774347522414,42773061000000,18,0.0,-1458339967353349073,-0.4398365020751953,153.57966185547411,10.778863381143658,16.989411660038712,11,-55.11,1561098000,5
Agc,1774347522414,42773061000000,18,0.0,-1458339967353349073,-0.4398365020751953,153.57966185547411,10.778863381143658,16.989411660038712,11,-54.1,1575420000,6
Agc,1774347522414,42773061000000,18,0.0,-1458339967353349073,-0.4398365020751953,153.57966185547411,10.778863381143658,16.989411660038712,11,-42.14,1176450000,1
Agc,1774347522414,42773061000000,18,0.0,-1458339967353349073,-0.4398365020751953,153.57966185547411,10.778863381143658,16.989411660038712,11,-42.14,1176450000,4
Agc,1774347522414,42773061000000,18,0.0,-1458339967353349073,-0.4398365020751953,153.57966185547411,10.778863381143658,16.989411660038712,11,-42.14,1176450000,6
Agc,1774347522414,42773061000000,18,0.0,-1458339967353349073,-0.4398365020751953,153.57966185547411,10.778863381143658,16.989411660038712,11,-42.14,1176450000,5
Agc,1774347522414,42773061000000,18,0.0,-1458339967353349073,-0.4398365020751953,153.57966185547411,10.778863381143658,16.989411660038712,11,-54.1,1575420000,5
Fix,GPS,45.0529246400,7.6562517900,298.8603515625,9.9,18.26585,27.8,1774347523000,0.9982835,6.5220947,55033636238381,14.533018,0,,,
Fix,FLP,45.0529056000,7.6562806000,299.1000061035156,4.1640706,50.651,89.663536,1774347522925,1.0088489,180.0,55033636238381,2.4284256,0,,,
Status,1774347523000,83,0,1,5,1575420030,27.80,65.323166,19.934767,1,1,1,24.199999
Status,1774347523000,83,1,1,16,1575420030,19.30,301.369,23.29987,0,1,1,15.699999
Status,1774347523000,83,2,1,25,1575420030,22.80,122.49495,28.004934,1,1,1,19.199999
Status,1774347523000,83,3,1,26,1575420030,24.20,301.49127,56.435013,1,1,1,20.6
Status,1774347523000,83,4,1,28,1575420030,17.70,216.56403,42.907173,1,1,1,14.1
Status,1774347523000,83,5,1,31,1575420030,24.90,258.043,50.65637,1,1,1,21.3
Status,1774347523000,83,6,1,4,1575420030,0.00,311.8526,4.89908,0,1,1,0.0
Status,1774347523000,83,7,1,18,1575420030,0.00,165.9185,59.12927,0,1,1,0.0
Status,1774347523000,83,8,1,21,1575420030,0.00,39.3117,9.6137295,0,1,1,0.0
Status,1774347523000,83,9,1,23,1575420030,0.00,152.58597,0.572014,0,1,1,0.0
Status,1774347523000,83,10,1,27,1575420030,0.00,257.46558,2.2235332,0,1,1,0.0
Status,1774347523000,83,11,1,29,1575420030,0.00,57.82374,51.817657,0,1,1,0.0
Status,1774347523000,83,12,3,16,1601437440,19.30,323.49643,48.72767,0,1,0,15.299999
Status,1774347523000,83,13,3,14,1598062460,0.00,140.27553,17.704935,0,1,0,0.0
Status,1774347523000,83,14,3,18,1600312450,0.00,216.27713,50.794895,0,1,0,0.0
Status,1774347523000,83,15,3,15,1602000000,0.00,135.00887,71.24882,0,1,0,0.0
Status,1774347523000,83,16,3,24,1603124990,0.00,37.716587,20.019047,0,1,0,0.0
Status,1774347523000,83,17,3,19,1603687550,0.00,216.04408,0.2477132,0,1,0,0.0
Status,1774347523000,83,18,3,17,1604249980,0.00,35.15994,76.51733,0,1,0,0.0
Status,1774347523000,83,19,3,7,1604812540,0.00,325.94406,3.350826,0,1,0,0.0
Status,1774347523000,83,20,3,8,1605374980,0.00,12.79673,5.1302896,0,1,0,0.0
Status,1774347523000,83,21,5,43,1561097980,22.40,228.31924,56.28878,1,1,1,18.099998
Status,1774347523000,83,22,5,23,1561097980,25.50,295.65173,55.7634,1,1,1,21.2
Status,1774347523000,83,23,5,8,1561097980,21.70,67.590164,23.663324,1,1,0,17.400002
Status,1774347523000,83,24,5,2,1561097980,0.00,100.33494,0.07997173,0,1,0,0.0
Status,1774347523000,83,25,5,5,1561097980,0.00,120.88697,16.402765,0,1,0,0.0
Status,1774347523000,83,26,5,10,1561097980,0.00,76.27286,0.6282919,0,1,0,0.0
Status,1774347523000,83,27,5,11,1561097980,0.00,167.36609,85.7855,0,1,0,0.0
Status,1774347523000,83,28,5,12,1561097980,0.00,51.51743,35.854797,0,1,0,0.0
Status,1774347523000,83,29,5,13,1561097980,0.00,79.25375,23.517141,0,1,0,0.0
Status,1774347523000,83,30,5,24,1561097980,0.00,145.58708,8.659473,0,1,1,0.0
Status,1774347523000,83,31,5,25,1561097980,0.00,175.58875,61.776314,0,1,0,0.0
Status,1774347523000,83,32,5,28,1561097980,0.00,229.9807,1.8349562,0,1,0,0.0
Status,1774347523000,83,33,5,34,1561097980,0.00,57.675804,62.231636,0,1,0,0.0
Status,1774347523000,83,34,5,37,1561097980,0.00,316.00336,8.300457,0,1,0,0.0
Status,1774347523000,83,35,5,38,1561097980,0.00,53.013676,20.684835,0,1,0,0.0
Status,1774347523000,83,36,5,44,1561097980,0.00,53.467308,9.304974,0,1,0,0.0
Status,1774347523000,83,37,5,60,1561097980,0.00,102.29299,4.0293584,0,1,0,0.0
Status,1774347523000,83,38,6,2,1575420030,26.00,299.389,30.333933,1,1,1,21.7
Status,1774347523000,83,39,6,3,1575420030,0.00,245.00227,6.96617,0,1,0,0.0
Status,1774347523000,83,40,6,7,1575420030,0.00,340.10226,2.2596526,0,1,0,0.0
Status,1774347523000,83,41,6,8,1575420030,0.00,293.39996,12.535529,0,1,1,0.0
Status,1774347523000,83,42,6,10,1575420030,0.00,80.05467,56.654514,0,1,0,0.0
Status,1774347523000,83,43,6,11,1575420030,0.00,138.77544,59.238605,0,1,0,0.0
Status,1774347523000,83,44,6,12,1575420030,0.00,52.611816,38.78811,0,1,0,0.0
Status,1774347523000,83,45,6,16,1575420030,0.00,108.20752,40.56148,0,1,0,0.0
Status,1774347523000,83,46,6,18,1575420030,0.00,69.63509,58.051716,0,1,0,0.0
Status,1774347523000,83,47,6,25,1575420030,0.00,1.8124231,82.425934,0,1,0,0.0
Status,1774347523000,83,48,6,36,1575420030,0.00,188.57127,22.215736,0,1,1,0.0
Status,1774347523000,83,49,1,18,1176450050,17.60,165.9185,59.12927,0,1,1,12.700001
Status,1774347523000,83,50,1,25,1176450050,20.00,122.49495,28.004934,1,1,1,15.1
Status,1774347523000,83,51,1,26,1176450050,24.30,301.49127,56.435013,1,1,1,19.4
Status,1774347523000,83,52,1,28,1176450050,17.90,216.56403,42.907173,0,1,1,13.0
Status,1774347523000,83,53,1,4,1176450050,0.00,311.8526,4.89908,0,1,1,0.0
Status,1774347523000,83,54,1,21,1176450050,0.00,39.3117,9.6137295,0,1,1,0.0
Status,1774347523000,83,55,1,23,1176450050,0.00,152.58597,0.572014,0,1,1,0.0
Status,1774347523000,83,56,1,27,1176450050,0.00,257.46558,2.2235332,0,1,1,0.0
Status,1774347523000,83,57,6,2,1176450050,23.50,299.389,30.333933,1,1,1,18.2
Status,1774347523000,83,58,6,16,1176450050,18.60,108.20752,40.56148,0,1,0,13.3
Status,1774347523000,83,59,6,3,1176450050,0.00,245.00227,6.96617,0,1,0,0.0
Status,1774347523000,83,60,6,8,1176450050,0.00,293.39996,12.535529,0,1,1,0.0
Status,1774347523000,83,61,6,10,1176450050,0.00,80.05467,56.654514,0,1,0,0.0
Status,1774347523000,83,62,6,12,1176450050,0.00,52.611816,38.78811,0,1,0,0.0
Status,1774347523000,83,63,6,18,1176450050,0.00,69.63509,58.051716,0,1,0,0.0
Status,1774347523000,83,64,6,25,1176450050,0.00,1.8124231,82.425934,0,1,0,0.0
Status,1774347523000,83,65,6,36,1176450050,0.00,188.57127,22.215736,0,1,1,0.0
Status,1774347523000,83,66,5,23,1176450050,26.70,295.65173,55.7634,1,1,1,22.2
Status,1774347523000,83,67,5,24,1176450050,0.00,145.58708,8.659473,0,1,1,0.0
Status,1774347523000,83,68,5,25,1176450050,0.00,175.58875,61.776314,0,1,0,0.0
Status,1774347523000,83,69,5,28,1176450050,0.00,229.9807,1.8349562,0,1,0,0.0
Status,1774347523000,83,70,5,34,1176450050,0.00,57.675804,62.231636,0,1,0,0.0
Status,1774347523000,83,71,5,37,1176450050,0.00,316.00336,8.300457,0,1,0,0.0
Status,1774347523000,83,72,5,38,1176450050,0.00,53.013676,20.684835,0,1,0,0.0
Status,1774347523000,83,73,5,43,1176450050,0.00,228.31924,56.28878,0,1,1,0.0
Status,1774347523000,83,74,5,44,1176450050,0.00,53.467308,9.304974,0,1,0,0.0
Status,1774347523000,83,75,5,23,1575420030,27.20,295.65173,55.7634,0,1,1,20.2
Status,1774347523000,83,76,5,38,1575420030,20.30,53.013676,20.684835,1,1,0,13.299999
Status,1774347523000,83,77,5,43,1575420030,27.90,228.31924,56.28878,1,1,1,20.9
Status,1774347523000,83,78,5,24,1575420030,0.00,145.58708,8.659473,0,1,1,0.0
Status,1774347523000,83,79,5,25,1575420030,0.00,175.58875,61.776314,0,1,0,0.0
Status,1774347523000,83,80,5,34,1575420030,0.00,57.675804,62.231636,0,1,0,0.0
Status,1774347523000,83,81,5,37,1575420030,0.00,316.00336,8.300457,0,1,0,0.0
Status,1774347523000,83,82,5,44,1575420030,0.00,53.467308,9.304974,0,1,0,0.0
Raw,1774347523414,42774061000000,18,0.0,-1458339967353349075,-0.794219970703125,145.20695549435914,10.505615136998879,16.665978144002853,11,16,0.0,16399,209941337893387,92,19.3,-607.5601196289062,3.3520002365112305,16,0.0,0.0,1575420030,,,,0,,1,-50.05,15.700000000000001,0.0,0.0,,,C,55034040996766,1,5537679.37544331,-17441141.48430068,18700505.679235008,1325.3777127201683,2095.0647973717487,1572.007955266964,69497.39009501647,0.000632362047326751,0.000000021420419216156006,0.000000007450580596923828,-0.00000011920928955078125,0.0,122880.0,0.0,-262144.0,196608.0
Raw,1774347523414,42774061000000,18,0.0,-1458339967353349075,-0.794219970703125,145.20695549435914,10.505615136998879,16.665978144002853,11,26,0.0,16399,209941344456342,46,24.2,-327.7522888183594,0.8675000071525574,16,0.0,0.0,1575420030,,,,0,,1,-50.05,20.599999999999998,0.0,0.0,,,C,55034040996766,1,13724556.635300964,-8064873.65042,21045664.842608616,1707.875581466512,2140.663536287328,-249.98450587173224,-103334.35914977928,-0.0021891002979828045,0.000000021420419216156006,0.000000007450580596923828,-0.00000011920928955078125,0.0,122880.0,0.0,-262144.0,196608.0
Raw,1774347523414,42774061000000,18,0.0,-1458339967353349075,-0.794219970703125,145.20695549435914,10.505615136998879,16.665978144002853,11,28,0.0,16399,209941341002931,106,17.7,472.41357421875,2.9180002212524414,16,0.0,0.0,1575420030,,,,0,,1,-50.05,14.1,0.0,0.0,,,C,55034040996766,1,25145982.546783935,-6223927.129652347,5924719.598787391,770.8227273504056,203.08242232219044,-3057.07644002533,-171291.60848699685,0.002532489103032276,0.000000021420419216156006,0.000000007450580596923828,-0.00000011920928955078125,0.0,122880.0,0.0,-262144.0,196608.0
Raw,1774347523414,42774061000000,18,0.0,-1458339967353349075,-0.794219970703125,145.20695549435914,10.505615136998879,16.665978144002853,11,31,0.0,16399,209941343147287,40,24.9,167.6011505126953,0.8689999580383301,16,0.0,0.0,1575420030,,,,0,,1,-50.05,21.299999999999997,0.0,0.0,,,C,55034040996766,1,19734426.173073992,-10675211.765278785,14163234.388741024,1842.6009752889745,154.8173873386276,-2372.227583072025,-47884.71772626796,0.0005825460975756869,0.000000021420419216156006,0.000000007450580596923828,-0.00000011920928955078125,0.0,122880.0,0.0,-262144.0,196608.0
Raw,1774347523414,42774061000000,18,0.0,-1458339967353349075,-0.794219970703125,145.20695549435914,10.505615136998879,16.665978144002853,11,23,0.0,16399,209927339100063,40,25.5,-260.78961181640625,0.7849999666213989,16,0.0,0.0,1561097980,,,,0,,5,-54.89,21.2,-490.2978515625,16.179569244384766,,,I,55034040996766,1,15142826.871779533,-9432431.214248199,21462150.826768786,2128.2803552781866,1224.4375301679318,-962.9442178934383,-142516.4427652666,0.0013194994535297155,0.000000021420419216156006,0.000000007450580596923828,-0.00000011920928955078125,0.0,122880.0,0.0,-262144.0,196608.0
Raw,1774347523414,42774061000000,18,0.0,-1458339967353349075,-0.794219970703125,145.20695549435914,10.505615136998879,16.665978144002853,11,2,0.0,17423,209941328105230,40,26.0,-425.7345275878906,0.7354999780654907,16,0.0,0.0,1575420030,,,,0,,6,-53.86,21.7,-0.9669813513755798,16.223726272583008,,,C,55034040996766,1,8529548.606825363,-18472145.6655504,21481958.179735012,802.9154417942405,2002.0634839256563,1403.2265731231776,8220.621612522009,0.0008359222119906917,0.000000021420419216156006,0.000000007450580596923828,-0.00000011920928955078125,0.0,122880.0,0.0,-262144.0,196608.0
Raw,1774347523414,42774061000000,18,0.0,-1458339967353349075,-0.794219970703125,145.20695549435914,10.505615136998879,16.665978144002853,11,18,0.0,81935,209941343788214,27,17.6,-352.4144592285156,3.565999984741211,16,0.0,0.0,1176450050,,,,0,,1,-42.26,12.700000000000001,-3.415759801864624,4.174047946929932,,,Q,55034040996766,1,24107817.87652149,5883942.556010999,9883658.877460409,-1229.6416489136889,243.48361652187046,2842.6784571180856,-118156.44245094674,0.003395392544916831,0.000000021420419216156006,0.000000007450580596923828,-0.00000011920928955078125,0.0,122880.0,0.0,-262144.0,196608.0
Raw,1774347523414,42774061000000,18,0.0,-1458339967353349075,-0.794219970703125,145.20695549435914,10.505615136998879,16.665978144002853,11,26,0.0,81935,209941344456411,11,24.3,-327.6944885253906,1.669819712638855,16,0.0,0.0,1176450050,,,,0,,1,-42.26,19.4,-3.415759801864624,4.174047946929932,,,Q,55034040996766,1,13724556.63541882,-8064873.650272271,21045664.842591368,1707.8755814725473,2140.663536279254,-249.98450590323353,-103334.35914977941,-0.0021891002979828045,0.000000021420419216156006,0.000000007450580596923828,-0.00000011920928955078125,0.0,122880.0,0.0,-262144.0,196608.0
Raw,1774347523414,42774061000000,18,0.0,-1458339967353349075,-0.794219970703125,145.20695549435914,10.505615136998879,16.665978144002853,11,2,0.0,81935,209941328105210,12,23.5,-426.2763366699219,0.9134999513626099,16,0.0,0.0,1176450050,,,,0,,6,-42.26,18.2,-24.291391372680664,297.3133850097656,,,Q,55034040996766,1,8529548.606808642,-18472145.665592067,21481958.179705814,802.9154417899524,2002.0634839242216,1403.226573130057,8220.865114979182,0.0008316619059769437,0.000000021420419216156006,0.000000007450580596923828,-0.00000011920928955078125,0.0,122880.0,0.0,-262144.0,196608.0
Raw,1774347523414,42774061000000,18,0.0,-1458339967353349075,-0.794219970703125,145.20695549435914,10.505615136998879,16.665978144002853,11,16,0.0,81935,209941330776849,23,18.6,357.2052001953125,3.4565000534057617,16,0.0,0.0,1176450050,,,,0,,6,-42.26,13.3,-24.291391372680664,297.3133850097656,,,Q,55034040996766,1,17641207.115255468,20613339.89823477,11808301.62431069,513.7691450388473,1069.5343057312814,-2635.657886518787,-6321.187038885684,-0.0007728057744316175,0.000000021420419216156006,0.000000007450580596923828,-0.00000011920928955078125,0.0,122880.0,0.0,-262144.0,196608.0
Raw,1774347523414,42774061000000,18,0.0,-1458339967353349075,-0.794219970703125,145.20695549435914,10.505615136998879,16.665978144002853,11,23,0.0,16399,209927339100044,8,26.7,-260.9444274902344,0.11015690118074417,16,0.0,0.0,1176450050,,,,0,,5,-42.26,22.2,-480.4462890625,297.3929748535156,,,P,55034040996766,1,15142826.871739108,-9432431.214271452,21462150.82678708,2128.280355278537,1224.4375301714958,-962.9442178859628,-142516.44276526663,0.001319499424425885,0.000000021420419216156006,0.000000007450580596923828,-0.00000011920928955078125,0.0,122880.0,0.0,-262144.0,196608.0
Raw,1774347523414,42774061000000,18,0.0,-1458339967353349075,-0.794219970703125,145.20695549435914,10.505615136998879,16.665978144002853,11,23,0.0,16399,209927339100014,10,27.2,-260.9002685546875,0.10424328595399857,16,0.0,0.0,1575420030,,,,0,,5,-53.86,20.2,-473.85205078125,295.6253356933594,,,P,55034040996766,1,15142826.871675266,-9432431.214308178,21462150.82681597,2128.280355279094,1224.437530177127,-962.9442178741565,-142516.44276526666,0.0013194994535297155,0.000000021420419216156006,0.000000007450580596923828,-0.00000011920928955078125,0.0,122880.0,0.0,-262144.0,196608.0
Agc,1774347523414,42774061000000,18,0.0,-1458339967353349075,-0.794219970703125,145.20695549435914,10.505615136998879,16.665978144002853,11,-50.05,1575420000,1
Agc,1774347523414,42774061000000,18,0.0,-1458339967353349075,-0.794219970703125,145.20695549435914,10.505615136998879,16.665978144002853,11,-47.19,1602000000,3
Agc,1774347523414,42774061000000,18,0.0,-1458339967353349075,-0.794219970703125,145.20695549435914,10.505615136998879,16.665978144002853,11,-54.89,1561098000,5
Agc,1774347523414,42774061000000,18,0.0,-1458339967353349075,-0.794219970703125,145.20695549435914,10.505615136998879,16.665978144002853,11,-53.86,1575420000,6
Agc,1774347523414,42774061000000,18,0.0,-1458339967353349075,-0.794219970703125,145.20695549435914,10.505615136998879,16.665978144002853,11,-42.26,1176450000,1
Agc,1774347523414,42774061000000,18,0.0,-1458339967353349075,-0.794219970703125,145.20695549435914,10.505615136998879,16.665978144002853,11,-42.26,1176450000,4
Agc,1774347523414,42774061000000,18,0.0,-1458339967353349075,-0.794219970703125,145.20695549435914,10.505615136998879,16.665978144002853,11,-42.26,1176450000,6
Agc,1774347523414,42774061000000,18,0.0,-1458339967353349075,-0.794219970703125,145.20695549435914,10.505615136998879,16.665978144002853,11,-42.26,1176450000,5
Agc,1774347523414,42774061000000,18,0.0,-1458339967353349075,-0.794219970703125,145.20695549435914,10.505615136998879,16.665978144002853,11,-53.86,1575420000,5
Fix,GPS,45.0530027000,7.6562626200,297.16143798828125,7.2,17.797396,26.2,1774347524000,2.5287123,22.330032,55034626993641,12.874677,0,,,
Fix,FLP,45.0529134000,7.6563336000,299.1000061035156,7.0818944,47.975,89.7276,1774347523915,1.0064801,180.0,55034626993641,2.438333,0,,,
Fix,NLP,45.0535038000,7.6571552000,,,100.0,,1774347524018,,,55034659000000,,0,,,
Status,1774347524000,83,0,1,5,1575420030,21.30,65.323166,19.934767,1,1,1,17.699999
Status,1774347524000,83,1,1,16,1575420030,26.90,301.369,23.29987,0,1,1,23.3
Status,1774347524000,83,2,1,25,1575420030,22.80,122.49495,28.004934,1,1,1,19.199999
Status,1774347524000,83,3,1,26,1575420030,26.10,301.49127,56.435013,1,1,1,22.5
Status,1774347524000,83,4,1,28,1575420030,17.70,216.56403,42.907173,1,1,1,14.1
Status,1774347524000,83,5,1,31,1575420030,22.80,258.043,50.65637,1,1,1,19.199999
Status,1774347524000,83,6,1,4,1575420030,0.00,311.8526,4.89908,0,1,1,0.0
Status,1774347524000,83,7,1,18,1575420030,0.00,165.9185,59.12927,0,1,1,0.0
Status,1774347524000,83,8,1,21,1575420030,0.00,39.3117,9.6137295,0,1,1,0.0
Status,1774347524000,83,9,1,23,1575420030,0.00,152.58597,0.572014,0,1,1,0.0
Status,1774347524000,83,10,1,27,1575420030,0.00,257.46558,2.2235332,0,1,1,0.0
Status,1774347524000,83,11,1,29,1575420030,0.00,57.82374,51.817657,0,1,1,0.0
Status,1774347524000,83,12,3,16,1601437440,23.70,323.49643,48.72767,0,1,0,19.7
Status,1774347524000,83,13,3,14,1598062460,0.00,140.27553,17.704935,0,1,0,0.0
Status,1774347524000,83,14,3,18,1600312450,0.00,216.27713,50.794895,0,1,0,0.0
Status,1774347524000,83,15,3,15,1602000000,0.00,135.00887,71.24882,0,1,0,0.0
Status,1774347524000,83,16,3,24,1603124990,0.00,37.716587,20.019047,0,1,0,0.0
Status,1774347524000,83,17,3,19,1603687550,0.00,216.04408,0.2477132,0,1,0,0.0
Status,1774347524000,83,18,3,17,1604249980,0.00,35.15994,76.51733,0,1,0,0.0
Status,1774347524000,83,19,3,7,1604812540,0.00,325.94406,3.350826,0,1,0,0.0
Status,1774347524000,83,20,3,8,1605374980,0.00,12.79673,5.1302896,0,1,0,0.0
Status,1774347524000,83,21,5,43,1561097980,21.60,228.31924,56.28878,1,1,1,17.3
Status,1774347524000,83,22,5,23,1561097980,25.60,295.65173,55.7634,1,1,1,21.3
Status,1774347524000,83,23,5,8,1561097980,21.70,67.590164,23.663324,1,1,0,17.400002
Status,1774347524000,83,24,5,2,1561097980,0.00,100.33494,0.07997173,0,1,0,0.0
Status,1774347524000,83,25,5,5,1561097980,0.00,120.88697,16.402765,0,1,0,0.0
Status,1774347524000,83,26,5,10,1561097980,0.00,76.27286,0.6282919,0,1,0,0.0
Status,1774347524000,83,27,5,11,1561097980,0.00,167.36609,85.7855,0,1,0,0.0
Status,1774347524000,83,28,5,12,1561097980,0.00,51.51743,35.854797,0,1,0,0.0
Status,1774347524000,83,29,5,13,1561097980,0.00,79.25375,23.517141,0,1,0,0.0
Status,1774347524000,83,30,5,24,1561097980,0.00,145.58708,8.659473,0,1,1,0.0
Status,1774347524000,83,31,5,25,1561097980,0.00,175.58875,61.776314,0,1,0,0.0
Status,1774347524000,83,32,5,28,1561097980,0.00,229.9807,1.8349562,0,1,0,0.0
Status,1774347524000,83,33,5,34,1561097980,0.00,57.675804,62.231636,0,1,0,0.0
Status,1774347524000,83,34,5,37,1561097980,0.00,316.00336,8.300457,0,1,0,0.0
Status,1774347524000,83,35,5,38,1561097980,0.00,53.013676,20.684835,0,1,0,0.0
Status,1774347524000,83,36,5,44,1561097980,0.00,53.467308,9.304974,0,1,0,0.0
Status,1774347524000,83,37,5,60,1561097980,0.00,102.29299,4.0293584,0,1,0,0.0
Status,1774347524000,83,38,6,2,1575420030,31.90,299.389,30.333933,1,1,1,27.599998
Status,1774347524000,83,39,6,8,1575420030,17.50,293.39996,12.535529,0,1,1,13.2
Status,1774347524000,83,40,6,3,1575420030,0.00,245.00227,6.96617,0,1,0,0.0
Status,1774347524000,83,41,6,7,1575420030,0.00,340.10226,2.2596526,0,1,0,0.0
Status,1774347524000,83,42,6,10,1575420030,0.00,80.05467,56.654514,0,1,0,0.0
Status,1774347524000,83,43,6,11,1575420030,0.00,138.77544,59.238605,0,1,0,0.0
Status,1774347524000,83,44,6,12,1575420030,0.00,52.611816,38.78811,0,1,0,0.0
Status,1774347524000,83,45,6,16,1575420030,0.00,108.20752,40.56148,0,1,0,0.0
Status,1774347524000,83,46,6,18,1575420030,0.00,69.63509,58.051716,0,1,0,0.0
Status,1774347524000,83,47,6,25,1575420030,0.00,1.8124231,82.425934,0,1,0,0.0
Status,1774347524000,83,48,6,36,1575420030,0.00,188.57127,22.215736,0,1,1,0.0
Status,1774347524000,83,49,1,18,1176450050,17.60,165.9185,59.12927,0,1,1,12.700001
Status,1774347524000,83,50,1,25,1176450050,20.00,122.49495,28.004934,1,1,1,15.1
Status,1774347524000,83,51,1,26,1176450050,24.50,301.49127,56.435013,1,1,1,19.6
Status,1774347524000,83,52,1,28,1176450050,17.90,216.56403,42.907173,0,1,1,13.0
Status,1774347524000,83,53,1,4,1176450050,0.00,311.8526,4.89908,0,1,1,0.0
Status,1774347524000,83,54,1,21,1176450050,0.00,39.3117,9.6137295,0,1,1,0.0
Status,1774347524000,83,55,1,23,1176450050,0.00,152.58597,0.572014,0,1,1,0.0
Status,1774347524000,83,56,1,27,1176450050,0.00,257.46558,2.2235332,0,1,1,0.0
Status,1774347524000,83,57,6,2,1176450050,28.50,299.389,30.333933,1,1,1,23.2
