# 
# Header Description:
# 
# Version: v3.1.1.2 Platform: 16 Manufacturer: Xiaomi Model: 2410DPN6CC GNSS Hardware Model Name: qcom;
# 
# Raw,utcTimeMillis,TimeNanos,LeapSecond,TimeUncertaintyNanos,FullBiasNanos,BiasNanos,BiasUncertaintyNanos,DriftNanosPerSecond,DriftUncertaintyNanosPerSecond,HardwareClockDiscontinuityCount,Svid,TimeOffsetNanos,State,ReceivedSvTimeNanos,ReceivedSvTimeUncertaintyNanos,Cn0DbHz,PseudorangeRateMetersPerSecond,PseudorangeRateUncertaintyMetersPerSecond,AccumulatedDeltaRangeState,AccumulatedDeltaRangeMeters,AccumulatedDeltaRangeUncertaintyMeters,CarrierFrequencyHz,CarrierCycles,CarrierPhase,CarrierPhaseUncertainty,MultipathIndicator,SnrInDb,ConstellationType,AgcDb,BasebandCn0DbHz,FullInterSignalBiasNanos,FullInterSignalBiasUncertaintyNanos,SatelliteInterSignalBiasNanos,SatelliteInterSignalBiasUncertaintyNanos,CodeType,ChipsetElapsedRealtimeNanos,IsFullTracking,SvPositionEcefXMeters,SvPositionEcefYMeters,SvPositionEcefZMeters,SvVelocityEcefXMetersPerSecond,SvVelocityEcefYMetersPerSecond,SvVelocityEcefZMetersPerSecond,SvClockBiasMeters,SvClockDriftMetersPerSecond,KlobucharAlpha0,KlobucharAlpha1,KlobucharAlpha2,KlobucharAlpha3,KlobucharBeta0,KlobucharBeta1,KlobucharBeta2,KlobucharBeta3
# 
# UncalAccel,utcTimeMillis,elapsedRealtimeNanos,UncalAccelXMps2,UncalAccelYMps2,UncalAccelZMps2,BiasXMps2,BiasYMps2,BiasZMps2,CalibrationAccuracy
# 
# Accel,utcTimeMillis,elapsedRealtimeNanos,AccelXMps2,AccelYMps2,AccelZMps2,CalibrationAccuracy
# 
# UncalGyro,utcTimeMillis,elapsedRealtimeNanos,UncalGyroXRadPerSec,UncalGyroYRadPerSec,UncalGyroZRadPerSec,DriftXRadPerSec,DriftYRadPerSec,DriftZRadPerSec,CalibrationAccuracy
# 
# Gyro,utcTimeMillis,elapsedRealtimeNanos,GyroXRadPerSec,GyroYRadPerSec,GyroZRadPerSec,CalibrationAccuracy
# 
# UncalMag,utcTimeMillis,elapsedRealtimeNanos,UncalMagXMicroT,UncalMagYMicroT,UncalMagZMicroT,BiasXMicroT,BiasYMicroT,BiasZMicroT,CalibrationAccuracy
# 
# Mag,utcTimeMillis,elapsedRealtimeNanos,MagXMicroT,MagYMicroT,MagZMicroT,CalibrationAccuracy
# 
# Pressure,utcTimeMillis,elapsedRealtimeNanos,PressureHpa,CalibrationAccuracy
# 
# OrientationDeg,utcTimeMillis,elapsedRealtimeNanos,yawDeg,rollDeg,pitchDeg,CalibrationAccuracy
# 
# Fix,Provider,LatitudeDegrees,LongitudeDegrees,AltitudeMeters,SpeedMps,AccuracyMeters,BearingDegrees,UnixTimeMillis,SpeedAccuracyMps,BearingAccuracyDegrees,elapsedRealtimeNanos,VerticalAccuracyMeters,MockLocation,NumberOfUsedSignals,VerticalSpeedAccuracyMps,SolutionType
# 
# Nav,Svid,Type,Status,MessageId,Sub-messageId,Data(Bytes)
# 
# Status,UnixTimeMillis,SignalCount,SignalIndex,ConstellationType,Svid,CarrierFrequencyHz,Cn0DbHz,AzimuthDegrees,ElevationDegrees,UsedInFix,HasAlmanacData,HasEphemerisData,BasebandCn0DbHz
# 
# Agc,utcTimeMillis,TimeNanos,LeapSecond,TimeUncertaintyNanos,FullBiasNanos,BiasNanos,BiasUncertaintyNanos,DriftNanosPerSecond,DriftUncertaintyNanosPerSecond,HardwareClockDiscontinuityCount,AgcDb,CarrierFrequencyHz,ConstellationType
# 
# GameRotationVector,utcTimeMillis,elapsedRealtimeNanos,x,y,z,w
# 
Status,,46,0,1,1,1575420000,0.00,114.94746,67.23935,0,1,1,0.0
Status,,46,1,1,2,1575420000,0.00,129.94514,35.509415,0,1,1,0.0
Status,,46,2,1,3,1575420000,0.00,334.91367,75.98987,0,1,1,0.0
Status,,46,3,1,4,1575420000,0.00,188.47292,45.29071,0,1,0,0.0
Status,,46,4,1,6,1575420000,0.00,305.5498,8.168609,0,1,0,0.0
Status,,46,5,1,9,1575420000,0.00,206.89084,16.809435,0,1,0,0.0
Status,,46,6,1,17,1575420000,0.00,280.7864,45.285324,0,1,1,0.0
Status,,46,7,1,19,1575420000,0.00,309.66492,28.088495,0,1,1,0.0
Status,,46,8,1,22,1575420000,0.00,264.6265,2.6449208,0,1,0,0.0
Status,,46,9,1,28,1575420000,0.00,64.87107,20.347172,0,1,1,0.0
Status,,46,10,1,31,1575420000,0.00,96.069756,20.38594,0,1,1,0.0
Status,,46,11,1,32,1575420000,0.00,38.998337,2.6970322,0,1,1,0.0
Status,,46,12,3,22,1600312400,0.00,141.01436,14.933708,0,1,0,0.0
Status,,46,13,3,1,1602562600,0.00,226.84065,52.077934,0,1,0,0.0
Status,,46,14,3,24,1603125000,0.00,322.08145,52.93867,0,1,1,0.0
Status,,46,15,3,23,1603687600,0.00,139.20956,55.516453,0,1,0,0.0
Status,,46,16,3,7,1604812500,0.00,38.098934,15.3879385,0,1,1,0.0
Status,,46,17,3,8,1605375000,0.00,31.422903,68.08399,0,1,0,0.0
Status,,46,18,5,2,1561098000,0.00,96.87045,3.7191794,0,1,0,0.0
Status,,46,19,5,5,1561098000,0.00,117.449844,20.916508,0,1,0,0.0
Status,,46,20,5,6,1561098000,0.00,71.12514,18.735863,0,1,0,0.0
Status,,46,21,5,9,1561098000,0.00,82.70624,17.364473,0,1,0,0.0
Status,,46,22,5,14,1561098000,0.00,51.552074,24.82908,0,1,0,0.0
Status,,46,23,5,16,1561098000,0.00,60.941917,18.248074,0,1,0,0.0
Status,,46,24,5,26,1561098000,0.00,39.17956,0.32475683,0,1,0,0.0
Status,,46,25,5,27,1561098000,0.00,271.65497,67.64539,0,1,1,0.0
Status,,46,26,5,28,1561098000,0.00,169.32047,53.44857,0,1,0,0.0
Status,,46,27,5,30,1561098000,0.00,315.08923,17.777245,0,1,0,0.0
Status,,46,28,5,32,1561098000,0.00,232.02147,17.58844,0,1,0,0.0
Status,,46,29,5,33,1561098000,0.00,51.24337,51.375793,0,1,1,0.0
Status,,46,30,5,39,1561098000,0.00,53.851448,19.041412,0,1,0,0.0
Status,,46,31,5,41,1561098000,0.00,232.74077,74.44015,0,1,0,0.0
Status,,46,32,5,43,1561098000,0.00,148.28377,1.801393,0,1,0,0.0
Status,,46,33,5,60,1561098000,0.00,101.252075,5.0623784,0,1,0,0.0
Status,,46,34,6,5,1575420000,23.30,181.2633,40.431477,0,1,0,19.0
Status,,46,35,6,2,1575420000,0.00,230.74033,0.29284826,0,1,0,0.0
Status,,46,36,6,4,1575420000,0.00,42.66838,21.146767,0,1,1,0.0
Status,,46,37,6,6,1575420000,0.00,58.65382,42.988667,0,1,1,0.0
Status,,46,38,6,9,1575420000,0.00,91.21919,60.798725,0,1,1,0.0
Status,,46,39,6,11,1575420000,0.00,113.41013,23.385168,0,1,0,0.0
Status,,46,40,6,14,1575420000,0.00,282.23193,36.631447,0,1,0,0.0
Status,,46,41,6,27,1575420000,0.00,324.00278,6.023762,0,1,0,0.0
Status,,46,42,6,30,1575420000,0.00,277.6713,9.817071,0,1,0,0.0
Status,,46,43,6,34,1575420000,0.00,307.6405,47.96433,0,1,1,0.0
Status,,46,44,6,36,1575420000,0.00,89.28616,73.12112,0,1,0,0.0
Status,,46,45,6,5,1176450000,0.00,181.2633,40.431477,0,1,0,0.0
Raw,1773860107417,842954159000000,18,0.0,-1457052371258202880,-0.5613517761230469,123967.29737520218,21.48437501964657,267.2929676285732,600,5,0.0,17423,327325333665479,53,23.3,-488.3791809082031,2.2769999504089355,16,0.0,0.0,1575420000,,,,0,,6,-51.41,19.0,-8.566161155700684,17.08833122253418,,,C,3566381280519277,1,29275444.588563424,3519463.4847003063,2532276.7436153134,-248.4334693629954,-89.50031319349674,3005.5574816996564,6180.4777575739145,0.0008390498969674809,0.000000021420419216156006,0.000000007450580596923828,-0.00000011920928955078125,0.0,122880.0,0.0,-262144.0,196608.0
Agc,1773860107417,842954159000000,18,0.0,-1457052371258202880,-0.5613517761230469,123967.29737520218,21.48437501964657,267.2929676285732,600,-47.63,1575420000,1
Agc,1773860107417,842954159000000,18,0.0,-1457052371258202880,-0.5613517761230469,123967.29737520218,21.48437501964657,267.2929676285732,600,-42.13,1602000000,3
Agc,1773860107417,842954159000000,18,0.0,-1457052371258202880,-0.5613517761230469,123967.29737520218,21.48437501964657,267.2929676285732,600,-55.53,1561098000,5
Agc,1773860107417,842954159000000,18,0.0,-1457052371258202880,-0.5613517761230469,123967.29737520218,21.48437501964657,267.2929676285732,600,-51.41,1575420000,6
Agc,1773860107417,842954159000000,18,0.0,-1457052371258202880,-0.5613517761230469,123967.29737520218,21.48437501964657,267.2929676285732,600,-40.7,1176450000,1
Agc,1773860107417,842954159000000,18,0.0,-1457052371258202880,-0.5613517761230469,123967.29737520218,21.48437501964657,267.2929676285732,600,-40.7,1176450000,4
Agc,1773860107417,842954159000000,18,0.0,-1457052371258202880,-0.5613517761230469,123967.29737520218,21.48437501964657,267.2929676285732,600,-40.7,1176450000,6
Agc,1773860107417,842954159000000,18,0.0,-1457052371258202880,-0.5613517761230469,123967.29737520218,21.48437501964657,267.2929676285732,600,-40.7,1176450000,5
Agc,1773860107417,842954159000000,18,0.0,-1457052371258202880,-0.5613517761230469,123967.29737520218,21.48437501964657,267.2929676285732,600,-49.65,1176450000,7
Agc,1773860107417,842954159000000,18,0.0,-1457052371258202880,-0.5613517761230469,123967.29737520218,21.48437501964657,267.2929676285732,600,-51.41,1575420000,5
Fix,NLP,45.0558570000,7.6716570000,,,25.0,,1773860107456,,,3566382259230370,,0,,,
Status,,46,0,1,1,1575420000,0.00,114.97476,67.21886,0,1,1,0.0
Status,,46,1,1,2,1575420000,0.00,129.95685,35.490097,0,1,1,0.0
Status,,46,2,1,3,1575420000,0.00,335.0092,75.991234,0,1,1,0.0
Status,,46,3,1,4,1575420000,0.00,188.47209,45.313774,0,1,0,0.0
Status,,46,4,1,6,1575420000,0.00,305.5569,8.186108,0,1,0,0.0
Status,,46,5,1,9,1575420000,0.00,206.89497,16.829588,0,1,0,0.0
Status,,46,6,1,17,1575420000,0.00,280.75687,45.28819,0,1,1,0.0
Status,,46,7,1,19,1575420000,0.00,309.6487,28.101873,0,1,1,0.0
Status,,46,8,1,22,1575420000,0.00,264.611,2.633399,0,1,0,0.0
Status,,46,9,1,28,1575420000,0.00,64.84969,20.348478,0,1,1,0.0
Status,,46,10,1,31,1575420000,0.00,96.04969,20.396229,0,1,1,0.0
Status,,46,11,1,32,1575420000,0.00,38.99796,2.6794817,0,1,1,0.0
Status,,46,12,3,22,1600312400,0.00,141.02563,14.912721,0,1,0,0.0
Status,,46,13,3,1,1602562600,0.00,226.86365,52.101402,0,1,0,0.0
Status,,46,14,3,24,1603125000,0.00,322.07715,52.963287,0,1,1,0.0
Status,,46,15,3,23,1603687600,0.00,139.23198,55.49201,0,1,0,0.0
Status,,46,16,3,7,1604812500,0.00,38.10451,15.366794,0,1,1,0.0
Status,,46,17,3,8,1605375000,0.00,31.420893,68.05777,0,1,0,0.0
Status,,46,18,5,2,1561098000,0.00,96.87013,3.7184985,0,1,0,0.0
Status,,46,19,5,5,1561098000,0.00,117.44919,20.916113,0,1,0,0.0
Status,,46,20,5,6,1561098000,0.00,71.118744,18.742472,0,1,0,0.0
Status,,46,21,5,9,1561098000,0.00,82.70097,17.37283,0,1,0,0.0
Status,,46,22,5,14,1561098000,0.00,51.556248,24.8119,0,1,0,0.0
Status,,46,23,5,16,1561098000,0.00,60.935204,18.253279,0,1,0,0.0
Status,,46,24,5,26,1561098000,0.00,39.16369,0.32833257,0,1,0,0.0
Status,,46,25,5,27,1561098000,0.00,271.60492,67.652245,0,1,1,0.0
Status,,46,26,5,28,1561098000,0.00,169.31985,53.42743,0,1,0,0.0
Status,,46,27,5,30,1561098000,0.00,315.0862,17.793438,0,1,0,0.0
Status,,46,28,5,32,1561098000,0.00,232.03215,17.605165,0,1,0,0.0
Status,,46,29,5,33,1561098000,0.00,51.243256,51.356827,0,1,1,0.0
Status,,46,30,5,39,1561098000,0.00,53.844273,19.044825,0,1,0,0.0
Status,,46,31,5,41,1561098000,0.00,232.77246,74.459915,0,1,0,0.0
Status,,46,32,5,43,1561098000,0.00,148.28708,1.7847049,0,1,0,0.0
Status,,46,33,5,60,1561098000,0.00,101.251816,5.06164,0,1,0,0.0
Status,,46,34,6,5,1575420000,19.60,181.26312,40.45046,0,1,0,15.3
Status,,46,35,6,2,1575420000,0.00,230.73003,0.28060004,0,1,0,0.0
Status,,46,36,6,4,1575420000,0.00,42.66244,21.133043,0,1,1,0.0
Status,,46,37,6,6,1575420000,0.00,58.637394,42.977665,0,1,1,0.0
Status,,46,38,6,9,1575420000,0.00,91.18168,60.797985,0,1,1,0.0
Status,,46,39,6,11,1575420000,0.00,113.42312,23.37156,0,1,0,0.0
Status,,46,40,6,14,1575420000,0.00,282.20267,36.63787,0,1,0,0.0
Status,,46,41,6,27,1575420000,0.00,323.98822,6.0235806,0,1,0,0.0
Status,,46,42,6,30,1575420000,0.00,277.6574,9.807799,0,1,0,0.0
Status,,46,43,6,34,1575420000,0.00,307.64835,47.980015,0,1,1,0.0
Status,,46,44,6,36,1575420000,0.00,89.33495,73.10916,0,1,0,0.0
Status,,46,45,6,5,1176450000,0.00,181.26312,40.45046,0,1,0,0.0
Raw,1773860108417,842955159000000,18,0.0,-1457052371258202864,-0.9300336837768555,124230.295419693,15.62499958049999,266.3356301245171,600,5,0.0,17423,327326333667167,92,19.6,-487.2279357910156,1.9570000171661377,16,0.0,0.0,1575420000,,,,0,,6,-51.31,15.3,-8.566161155700684,17.08833122253418,,,C,3566382275229380,1,29275196.000871733,3519373.9846563907,2535282.286687767,-248.74107434970665,-89.49946487489997,3005.5185088258786,6180.478596626458,0.0008390523571506492,0.000000021420419216156006,0.000000007450580596923828,-0.00000011920928955078125,0.0,122880.0,0.0,-262144.0,196608.0
Agc,1773860108417,842955159000000,18,0.0,-1457052371258202864,-0.9300336837768555,124230.295419693,15.62499958049999,266.3356301245171,600,-47.55,1575420000,1
Agc,1773860108417,842955159000000,18,0.0,-1457052371258202864,-0.9300336837768555,124230.295419693,15.62499958049999,266.3356301245171,600,-42.02,1602000000,3
Agc,1773860108417,842955159000000,18,0.0,-1457052371258202864,-0.9300336837768555,124230.295419693,15.62499958049999,266.3356301245171,600,-55.37,1561098000,5
Agc,1773860108417,842955159000000,18,0.0,-1457052371258202864,-0.9300336837768555,124230.295419693,15.62499958049999,266.3356301245171,600,-51.31,1575420000,6
Agc,1773860108417,842955159000000,18,0.0,-1457052371258202864,-0.9300336837768555,124230.295419693,15.62499958049999,266.3356301245171,600,-39.69,1176450000,1
Agc,1773860108417,842955159000000,18,0.0,-1457052371258202864,-0.9300336837768555,124230.295419693,15.62499958049999,266.3356301245171,600,-39.69,1176450000,4
Agc,1773860108417,842955159000000,18,0.0,-1457052371258202864,-0.9300336837768555,124230.295419693,15.62499958049999,266.3356301245171,600,-39.69,1176450000,6
Agc,1773860108417,842955159000000,18,0.0,-1457052371258202864,-0.9300336837768555,124230.295419693,15.62499958049999,266.3356301245171,600,-39.69,1176450000,5
Agc,1773860108417,842955159000000,18,0.0,-1457052371258202864,-0.9300336837768555,124230.295419693,15.62499958049999,266.3356301245171,600,-48.59,1176450000,7
Agc,1773860108417,842955159000000,18,0.0,-1457052371258202864,-0.9300336837768555,124230.295419693,15.62499958049999,266.3356301245171,600,-51.31,1575420000,5
Status,,46,0,1,1,1575420000,0.00,114.97476,67.21886,0,1,1,0.0
Status,,46,1,1,2,1575420000,0.00,129.95685,35.490097,0,1,1,0.0
Status,,46,2,1,3,1575420000,0.00,335.0092,75.991234,0,1,1,0.0
Status,,46,3,1,4,1575420000,0.00,188.47209,45.313774,0,1,0,0.0
Status,,46,4,1,6,1575420000,0.00,305.5569,8.186108,0,1,0,0.0
Status,,46,5,1,9,1575420000,0.00,206.89497,16.829588,0,1,0,0.0
Status,,46,6,1,17,1575420000,0.00,280.75687,45.28819,0,1,1,0.0
Status,,46,7,1,19,1575420000,0.00,309.6487,28.101873,0,1,1,0.0
Status,,46,8,1,22,1575420000,0.00,264.611,2.633399,0,1,0,0.0
Status,,46,9,1,28,1575420000,0.00,64.84969,20.348478,0,1,1,0.0
Status,,46,10,1,31,1575420000,0.00,96.04969,20.396229,0,1,1,0.0
Status,,46,11,1,32,1575420000,0.00,38.99796,2.6794817,0,1,1,0.0
Status,,46,12,3,22,1600312400,0.00,141.02563,14.912721,0,1,0,0.0
Status,,46,13,3,1,1602562600,0.00,226.86365,52.101402,0,1,0,0.0
Status,,46,14,3,24,1603125000,0.00,322.07715,52.963287,0,1,1,0.0
Status,,46,15,3,23,1603687600,0.00,139.23198,55.49201,0,1,0,0.0
Status,,46,16,3,7,1604812500,0.00,38.10451,15.366794,0,1,1,0.0
Status,,46,17,3,8,1605375000,0.00,31.420893,68.05777,0,1,0,0.0
Status,,46,18,5,32,1561098000,26.00,232.03215,17.605165,0,1,0,21.7
Status,,46,19,5,2,1561098000,0.00,96.87013,3.7184985,0,1,0,0.0
Status,,46,20,5,5,1561098000,0.00,117.44919,20.916113,0,1,0,0.0
Status,,46,21,5,6,1561098000,0.00,71.118744,18.742472,0,1,0,0.0
Status,,46,22,5,9,1561098000,0.00,82.70097,17.37283,0,1,0,0.0
Status,,46,23,5,14,1561098000,0.00,51.556248,24.8119,0,1,0,0.0
Status,,46,24,5,16,1561098000,0.00,60.935204,18.253279,0,1,0,0.0
Status,,46,25,5,26,1561098000,0.00,39.16369,0.32833257,0,1,0,0.0
Status,,46,26,5,27,1561098000,0.00,271.60492,67.652245,0,1,1,0.0
Status,,46,27,5,28,1561098000,0.00,169.31985,53.42743,0,1,0,0.0
Status,,46,28,5,30,1561098000,0.00,315.0862,17.793438,0,1,0,0.0
Status,,46,29,5,33,1561098000,0.00,51.243256,51.356827,0,1,1,0.0
Status,,46,30,5,39,1561098000,0.00,53.844273,19.044825,0,1,0,0.0
Status,,46,31,5,41,1561098000,0.00,232.77246,74.459915,0,1,0,0.0
Status,,46,32,5,43,1561098000,0.00,148.28708,1.7847049,0,1,0,0.0
Status,,46,33,5,60,1561098000,0.00,101.251816,5.06164,0,1,0,0.0
Status,,46,34,6,5,1575420000,19.60,181.26312,40.45046,0,1,0,15.3
Status,,46,35,6,2,1575420000,0.00,230.73003,0.28060004,0,1,0,0.0
Status,,46,36,6,4,1575420000,0.00,42.66244,21.133043,0,1,1,0.0
Status,,46,37,6,6,1575420000,0.00,58.637394,42.977665,0,1,1,0.0
Status,,46,38,6,9,1575420000,0.00,91.18168,60.797985,0,1,1,0.0
Status,,46,39,6,11,1575420000,0.00,113.42312,23.37156,0,1,0,0.0
Status,,46,40,6,14,1575420000,0.00,282.20267,36.63787,0,1,0,0.0
Status,,46,41,6,27,1575420000,0.00,323.98822,6.0235806,0,1,0,0.0
Status,,46,42,6,30,1575420000,0.00,277.6574,9.807799,0,1,0,0.0
Status,,46,43,6,34,1575420000,0.00,307.64835,47.980015,0,1,1,0.0
Status,,46,44,6,36,1575420000,0.00,89.33495,73.10916,0,1,0,0.0
Status,,46,45,6,5,1176450000,0.00,181.26312,40.45046,0,1,0,0.0
Raw,1773860109417,842956159000000,18,0.0,-1457052371258202783,-0.8677167892456055,124399.0883231163,19.531249873264375,267.1678098358955,600,32,0.0,16399,327313331934580,40,26.0,-569.0802612304688,1.0429999828338623,16,0.0,0.0,1561098000,,,,0,,5,-55.26,21.7,-480.9939270019531,16.587194442749023,,,I,3566383280944745,1,22763190.14249251,-16104134.02834181,-563003.0122656765,84.02444830359116,5.539439084855518,3153.451184854225,-280680.13020385266,0.0012492220848798752,0.000000021420419216156006,0.000000007450580596923828,-0.00000011920928955078125,0.0,122880.0,0.0,-262144.0,196608.0
Agc,1773860109417,842956159000000,18,0.0,-1457052371258202783,-0.8677167892456055,124399.0883231163,19.531249873264375,267.1678098358955,600,-47.45,1575420000,1
Agc,1773860109417,842956159000000,18,0.0,-1457052371258202783,-0.8677167892456055,124399.0883231163,19.531249873264375,267.1678098358955,600,-42.0,1602000000,3
Agc,1773860109417,842956159000000,18,0.0,-1457052371258202783,-0.8677167892456055,124399.0883231163,19.531249873264375,267.1678098358955,600,-55.26,1561098000,5
Agc,1773860109417,842956159000000,18,0.0,-1457052371258202783,-0.8677167892456055,124399.0883231163,19.531249873264375,267.1678098358955,600,-51.25,1575420000,6
Agc,1773860109417,842956159000000,18,0.0,-1457052371258202783,-0.8677167892456055,124399.0883231163,19.531249873264375,267.1678098358955,600,-38.92,1176450000,1
Agc,1773860109417,842956159000000,18,0.0,-1457052371258202783,-0.8677167892456055,124399.0883231163,19.531249873264375,267.1678098358955,600,-38.92,1176450000,4
Agc,1773860109417,842956159000000,18,0.0,-1457052371258202783,-0.8677167892456055,124399.0883231163,19.531249873264375,267.1678098358955,600,-38.92,1176450000,6
Agc,1773860109417,842956159000000,18,0.0,-1457052371258202783,-0.8677167892456055,124399.0883231163,19.531249873264375,267.1678098358955,600,-38.92,1176450000,5
Agc,1773860109417,842956159000000,18,0.0,-1457052371258202783,-0.8677167892456055,124399.0883231163,19.531249873264375,267.1678098358955,600,-47.85,1176450000,7
Agc,1773860109417,842956159000000,18,0.0,-1457052371258202783,-0.8677167892456055,124399.0883231163,19.531249873264375,267.1678098358955,600,-51.25,1575420000,5
Fix,FLP,45.0560634000,7.6716728000,297.8000183105469,0.5613857,17.734,222.61014,1773860105959,1.5,45.0,3566380761000000,0.64749825,0,,,
Status,,48,0,1,1,1575420000,0.00,114.97476,67.21886,0,1,1,0.0
Status,,48,1,1,2,1575420000,0.00,129.95685,35.490097,0,1,1,0.0
Status,,48,2,1,3,1575420000,0.00,335.0092,75.991234,0,1,1,0.0
Status,,48,3,1,4,1575420000,0.00,188.47209,45.313774,0,1,0,0.0
Status,,48,4,1,6,1575420000,0.00,305.5569,8.186108,0,1,0,0.0
Status,,48,5,1,9,1575420000,0.00,206.89497,16.829588,0,1,0,0.0
Status,,48,6,1,17,1575420000,0.00,280.75687,45.28819,0,1,1,0.0
Status,,48,7,1,19,1575420000,0.00,309.6487,28.101873,0,1,1,0.0
Status,,48,8,1,22,1575420000,0.00,264.611,2.633399,0,1,0,0.0
Status,,48,9,1,28,1575420000,0.00,64.84969,20.348478,0,1,1,0.0
Status,,48,10,1,31,1575420000,0.00,96.04969,20.396229,0,1,1,0.0
Status,,48,11,1,32,1575420000,0.00,38.99796,2.6794817,0,1,1,0.0
Status,,48,12,3,22,1600312400,0.00,141.02563,14.912721,0,1,0,0.0
Status,,48,13,3,1,1602562600,0.00,226.86365,52.101402,0,1,0,0.0
Status,,48,14,3,24,1603125000,0.00,322.07715,52.963287,0,1,1,0.0
Status,,48,15,3,23,1603687600,0.00,139.23198,55.49201,0,1,0,0.0
Status,,48,16,3,7,1604812500,0.00,38.10451,15.366794,0,1,1,0.0
Status,,48,17,3,8,1605375000,0.00,31.420893,68.05777,0,1,0,0.0
Status,,48,18,5,32,1561098000,26.00,232.03215,17.605165,0,1,0,21.7
Status,,48,19,5,2,1561098000,0.00,96.87013,3.7184985,0,1,0,0.0
Status,,48,20,5,5,1561098000,0.00,117.44919,20.916113,0,1,0,0.0
Status,,48,21,5,6,1561098000,0.00,71.118744,18.742472,0,1,0,0.0
Status,,48,22,5,9,1561098000,0.00,82.70097,17.37283,0,1,0,0.0
Status,,48,23,5,14,1561098000,0.00,51.556248,24.8119,0,1,0,0.0
Status,,48,24,5,16,1561098000,0.00,60.935204,18.253279,0,1,0,0.0
Status,,48,25,5,26,1561098000,0.00,39.16369,0.32833257,0,1,0,0.0
Status,,48,26,5,27,1561098000,0.00,271.60492,67.652245,0,1,1,0.0
Status,,48,27,5,28,1561098000,0.00,169.31985,53.42743,0,1,0,0.0
Status,,48,28,5,30,1561098000,0.00,315.0862,17.793438,0,1,0,0.0
Status,,48,29,5,33,1561098000,0.00,51.243256,51.356827,0,1,1,0.0
Status,,48,30,5,39,1561098000,0.00,53.844273,19.044825,0,1,0,0.0
Status,,48,31,5,41,1561098000,0.00,232.77246,74.459915,0,1,0,0.0
Status,,48,32,5,43,1561098000,0.00,148.28708,1.7847049,0,1,0,0.0
Status,,48,33,5,60,1561098000,0.00,101.251816,5.06164,0,1,0,0.0
Status,,48,34,6,5,1575420000,19.60,181.26312,40.45046,0,1,0,15.3
Status,,48,35,6,2,1575420000,0.00,230.73003,0.28060004,0,1,0,0.0
Status,,48,36,6,4,1575420000,0.00,42.66244,21.133043,0,1,1,0.0
Status,,48,37,6,6,1575420000,0.00,58.637394,42.977665,0,1,1,0.0
Status,,48,38,6,9,1575420000,0.00,91.18168,60.797985,0,1,1,0.0
Status,,48,39,6,11,1575420000,0.00,113.42312,23.37156,0,1,0,0.0
Status,,48,40,6,14,1575420000,0.00,282.20267,36.63787,0,1,0,0.0
Status,,48,41,6,27,1575420000,0.00,323.98822,6.0235806,0,1,0,0.0
Status,,48,42,6,30,1575420000,0.00,277.6574,9.807799,0,1,0,0.0
Status,,48,43,6,34,1575420000,0.00,307.64835,47.980015,0,1,1,0.0
Status,,48,44,6,36,1575420000,0.00,89.33495,73.10916,0,1,0,0.0
Status,,48,45,6,5,1176450000,0.00,181.26312,40.45046,0,1,0,0.0
Status,,48,46,5,32,1176450000,0.00,232.03215,17.605165,0,1,0,0.0
Status,,48,47,5,32,1575420000,0.00,232.03215,17.605165,0,1,0,0.0
Agc,1773860110417,842957159000000,18,0.0,-1457052371258202764,-0.3322944641113281,124662.08636760712,19.531249873264375,266.3356301245171,600,-47.18,1575420000,1
Agc,1773860110417,842957159000000,18,0.0,-1457052371258202764,-0.3322944641113281,124662.08636760712,19.531249873264375,266.3356301245171,600,-41.76,1602000000,3
Agc,1773860110417,842957159000000,18,0.0,-1457052371258202764,-0.3322944641113281,124662.08636760712,19.531249873264375,266.3356301245171,600,-55.09,1561098000,5
Agc,1773860110417,842957159000000,18,0.0,-1457052371258202764,-0.3322944641113281,124662.08636760712,19.531249873264375,266.3356301245171,600,-50.97,1575420000,6
Agc,1773860110417,842957159000000,18,0.0,-1457052371258202764,-0.3322944641113281,124662.08636760712,19.531249873264375,266.3356301245171,600,-38.37,1176450000,1
Agc,1773860110417,842957159000000,18,0.0,-1457052371258202764,-0.3322944641113281,124662.08636760712,19.531249873264375,266.3356301245171,600,-38.37,1176450000,4
Agc,1773860110417,842957159000000,18,0.0,-1457052371258202764,-0.3322944641113281,124662.08636760712,19.531249873264375,266.3356301245171,600,-38.37,1176450000,6
Agc,1773860110417,842957159000000,18,0.0,-1457052371258202764,-0.3322944641113281,124662.08636760712,19.531249873264375,266.3356301245171,600,-38.37,1176450000,5
Agc,1773860110417,842957159000000,18,0.0,-1457052371258202764,-0.3322944641113281,124662.08636760712,19.531249873264375,266.3356301245171,600,-47.24,1176450000,7
Agc,1773860110417,842957159000000,18,0.0,-1457052371258202764,-0.3322944641113281,124662.08636760712,19.531249873264375,266.3356301245171,600,-50.97,1575420000,5
Fix,NLP,45.0558570000,7.6716570000,,,25.0,,1773860110473,,,3566385276125369,,0,,,
Status,,55,0,1,1,1575420000,0.00,114.97476,67.21886,0,1,1,0.0
Status,,55,1,1,2,1575420000,0.00,129.95685,35.490097,0,1,1,0.0
Status,,55,2,1,3,1575420000,0.00,335.0092,75.991234,0,1,1,0.0
Status,,55,3,1,4,1575420000,0.00,188.47209,45.313774,0,1,0,0.0
Status,,55,4,1,6,1575420000,0.00,305.5569,8.186108,0,1,0,0.0
Status,,55,5,1,9,1575420000,0.00,206.89497,16.829588,0,1,0,0.0
Status,,55,6,1,17,1575420000,0.00,280.75687,45.28819,0,1,1,0.0
Status,,55,7,1,19,1575420000,0.00,309.6487,28.101873,0,1,1,0.0
Status,,55,8,1,22,1575420000,0.00,264.611,2.633399,0,1,0,0.0
Status,,55,9,1,28,1575420000,0.00,64.84969,20.348478,0,1,1,0.0
Status,,55,10,1,31,1575420000,0.00,96.04969,20.396229,0,1,1,0.0
Status,,55,11,1,32,1575420000,0.00,38.99796,2.6794817,0,1,1,0.0
Status,,55,12,3,1,1602562600,18.60,226.86365,52.101402,0,1,0,14.6
Status,,55,13,3,22,1600312400,0.00,141.02563,14.912721,0,1,0,0.0
Status,,55,14,3,24,1603125000,0.00,322.07715,52.963287,0,1,1,0.0
Status,,55,15,3,23,1603687600,0.00,139.23198,55.49201,0,1,0,0.0
Status,,55,16,3,7,1604812500,0.00,38.10451,15.366794,0,1,1,0.0
Status,,55,17,3,8,1605375000,0.00,31.420893,68.05777,0,1,0,0.0
Status,,55,18,5,32,1561098000,26.00,232.03215,17.605165,0,1,0,21.7
Status,,55,19,5,28,1561098000,20.20,169.31985,53.42743,0,1,0,15.900001
Status,,55,20,5,2,1561098000,0.00,96.87013,3.7184985,0,1,0,0.0
Status,,55,21,5,5,1561098000,0.00,117.44919,20.916113,0,1,0,0.0
Status,,55,22,5,6,1561098000,0.00,71.118744,18.742472,0,1,0,0.0
Status,,55,23,5,9,1561098000,0.00,82.70097,17.37283,0,1,0,0.0
Status,,55,24,5,14,1561098000,0.00,51.556248,24.8119,0,1,0,0.0
Status,,55,25,5,16,1561098000,0.00,60.935204,18.253279,0,1,0,0.0
Status,,55,26,5,26,1561098000,0.00,39.16369,0.32833257,0,1,0,0.0
Status,,55,27,5,27,1561098000,0.00,271.60492,67.652245,0,1,1,0.0
Status,,55,28,5,30,1561098000,0.00,315.0862,17.793438,0,1,0,0.0
Status,,55,29,5,33,1561098000,0.00,51.243256,51.356827,0,1,1,0.0
Status,,55,30,5,39,1561098000,0.00,53.844273,19.044825,0,1,0,0.0
Status,,55,31,5,41,1561098000,0.00,232.77246,74.459915,0,1,0,0.0
Status,,55,32,5,43,1561098000,0.00,148.28708,1.7847049,0,1,0,0.0
Status,,55,33,5,60,1561098000,0.00,101.251816,5.06164,0,1,0,0.0
Status,,55,34,6,5,1575420000,19.60,181.26312,40.45046,0,1,0,15.3
Status,,55,35,6,2,1575420000,0.00,230.73003,0.28060004,0,1,0,0.0
Status,,55,36,6,4,1575420000,0.00,42.66244,21.133043,0,1,1,0.0
Status,,55,37,6,6,1575420000,0.00,58.637394,42.977665,0,1,1,0.0
Status,,55,38,6,9,1575420000,0.00,91.18168,60.797985,0,1,1,0.0
Status,,55,39,6,11,1575420000,0.00,113.42312,23.37156,0,1,0,0.0
Status,,55,40,6,14,1575420000,0.00,282.20267,36.63787,0,1,0,0.0
Status,,55,41,6,27,1575420000,0.00,323.98822,6.0235806,0,1,0,0.0
Status,,55,42,6,30,1575420000,0.00,277.6574,9.807799,0,1,0,0.0
Status,,55,43,6,34,1575420000,0.00,307.64835,47.980015,0,1,1,0.0
Status,,55,44,6,36,1575420000,0.00,89.33495,73.10916,0,1,0,0.0
Status,,55,45,1,1,1176450000,0.00,114.97476,67.21886,0,1,1,0.0
Status,,55,46,1,3,1176450000,0.00,335.0092,75.991234,0,1,1,0.0
Status,,55,47,6,5,1176450000,25.40,181.26312,40.45046,0,1,0,20.099998
Status,,55,48,5,32,1176450000,19.70,232.03215,17.605165,0,1,0,15.200001
Status,,55,49,5,27,1176450000,0.00,271.60492,67.652245,0,1,1,0.0
Status,,55,50,5,28,1176450000,0.00,169.31985,53.42743,0,1,0,0.0
Status,,55,51,5,41,1176450000,0.00,232.77246,74.459915,0,1,0,0.0
Status,,55,52,5,28,1575420000,0.00,169.31985,53.42743,0,1,0,0.0
Status,,55,53,5,32,1575420000,0.00,232.03215,17.605165,0,1,0,0.0
Status,,55,54,5,41,1575420000,0.00,232.77246,74.459915,0,1,0,0.0
Raw,1773860112417,842959159000000,18,0.0,-1457052371258203176,-0.17058753967285156,2897.180849686265,15.345923533483479,204.3844059692216,600,1,0.0,49359,78912350095582,106,18.6,-447.41693115234375,3.831500291824341,16,0.0,0.0,1602562600,,,,0,,3,-41.76,14.600000000000001,4855.9697265625,17.867748260498047,,,C,3566386280349691,1,22756731.113028347,-6053582.245870256,9788304.722590731,-1276.9600260024094,440.064607219404,3244.8275645393396,48679.294369728115,0.0002726596521824831,0.000000021420419216156006,0.000000007450580596923828,-0.00000011920928955078125,0.0,122880.0,0.0,-262144.0,196608.0
Raw,1773860112417,842959159000000,18,0.0,-1457052371258203176,-0.17058753967285156,2897.180849686265,15.345923533483479,204.3844059692216,600,5,0.0,81935,327330333673649,10,25.4,-487.8345031738281,0.11024752259254456,16,0.0,0.0,1176450000,,,,0,,6,-38.1,20.099999999999998,-35.63650131225586,5814.40380859375,,,Q,3566386280349691,1,29274198.574157394,3519015.993674414,2547304.0677449685,-249.97146743072304,-89.49561393050789,3005.3621550922003,6180.321880595232,0.0008390621987928171,0.000000021420419216156006,0.000000007450580596923828,-0.00000011920928955078125,0.0,122880.0,0.0,-262144.0,196608.0
Agc,1773860112417,842959159000000,18,0.0,-1457052371258203176,-0.17058753967285156,2897.180849686265,15.345923533483479,204.3844059692216,600,-47.19,1575420000,1
Agc,1773860112417,842959159000000,18,0.0,-1457052371258203176,-0.17058753967285156,2897.180849686265,15.345923533483479,204.3844059692216,600,-41.76,1602000000,3
Agc,1773860112417,842959159000000,18,0.0,-1457052371258203176,-0.17058753967285156,2897.180849686265,15.345923533483479,204.3844059692216,600,-55.17,1561098000,5
Agc,1773860112417,842959159000000,18,0.0,-1457052371258203176,-0.17058753967285156,2897.180849686265,15.345923533483479,204.3844059692216,600,-50.96,1575420000,6
Agc,1773860112417,842959159000000,18,0.0,-1457052371258203176,-0.17058753967285156,2897.180849686265,15.345923533483479,204.3844059692216,600,-38.1,1176450000,1
Agc,1773860112417,842959159000000,18,0.0,-1457052371258203176,-0.17058753967285156,2897.180849686265,15.345923533483479,204.3844059692216,600,-38.1,1176450000,4
Agc,1773860112417,842959159000000,18,0.0,-1457052371258203176,-0.17058753967285156,2897.180849686265,15.345923533483479,204.3844059692216,600,-38.1,1176450000,6
Agc,1773860112417,842959159000000,18,0.0,-1457052371258203176,-0.17058753967285156,2897.180849686265,15.345923533483479,204.3844059692216,600,-38.1,1176450000,5
Agc,1773860112417,842959159000000,18,0.0,-1457052371258203176,-0.17058753967285156,2897.180849686265,15.345923533483479,204.3844059692216,600,-46.88,1176450000,7
Agc,1773860112417,842959159000000,18,0.0,-1457052371258203176,-0.17058753967285156,2897.180849686265,15.345923533483479,204.3844059692216,600,-50.96,1575420000,5
Status,,55,0,1,1,1575420000,0.00,114.97476,67.21886,0,1,1,0.0
Status,,55,1,1,2,1575420000,0.00,129.95685,35.490097,0,1,1,0.0
Status,,55,2,1,3,1575420000,0.00,335.0092,75.991234,0,1,1,0.0
Status,,55,3,1,4,1575420000,0.00,188.47209,45.313774,0,1,0,0.0
Status,,55,4,1,6,1575420000,0.00,305.5569,8.186108,0,1,0,0.0
Status,,55,5,1,9,1575420000,0.00,206.89497,16.829588,0,1,0,0.0
Status,,55,6,1,17,1575420000,0.00,280.75687,45.28819,0,1,1,0.0
Status,,55,7,1,19,1575420000,0.00,309.6487,28.101873,0,1,1,0.0
Status,,55,8,1,22,1575420000,0.00,264.611,2.633399,0,1,0,0.0
Status,,55,9,1,28,1575420000,0.00,64.84969,20.348478,0,1,1,0.0
Status,,55,10,1,31,1575420000,0.00,96.04969,20.396229,0,1,1,0.0
Status,,55,11,1,32,1575420000,0.00,38.99796,2.6794817,0,1,1,0.0
Status,,55,12,3,1,1602562600,18.60,226.86365,52.101402,0,1,0,14.6
Status,,55,13,3,22,1600312400,0.00,141.02563,14.912721,0,1,0,0.0
Status,,55,14,3,24,1603125000,0.00,322.07715,52.963287,0,1,1,0.0
Status,,55,15,3,23,1603687600,0.00,139.23198,55.49201,0,1,0,0.0
Status,,55,16,3,7,1604812500,0.00,38.10451,15.366794,0,1,1,0.0
Status,,55,17,3,8,1605375000,0.00,31.420893,68.05777,0,1,0,0.0
Status,,55,18,5,32,1561098000,19.30,232.03215,17.605165,0,1,0,14.999999
Status,,55,19,5,28,1561098000,20.20,169.31985,53.42743,0,1,0,15.900001
Status,,55,20,5,2,1561098000,0.00,96.87013,3.7184985,0,1,0,0.0
Status,,55,21,5,5,1561098000,0.00,117.44919,20.916113,0,1,0,0.0
Status,,55,22,5,6,1561098000,0.00,71.118744,18.742472,0,1,0,0.0
Status,,55,23,5,9,1561098000,0.00,82.70097,17.37283,0,1,0,0.0
Status,,55,24,5,14,1561098000,0.00,51.556248,24.8119,0,1,0,0.0
Status,,55,25,5,16,1561098000,0.00,60.935204,18.253279,0,1,0,0.0
Status,,55,26,5,26,1561098000,0.00,39.16369,0.32833257,0,1,0,0.0
Status,,55,27,5,27,1561098000,0.00,271.60492,67.652245,0,1,1,0.0
Status,,55,28,5,30,1561098000,0.00,315.0862,17.793438,0,1,0,0.0
Status,,55,29,5,33,1561098000,0.00,51.243256,51.356827,0,1,1,0.0
Status,,55,30,5,39,1561098000,0.00,53.844273,19.044825,0,1,0,0.0
Status,,55,31,5,41,1561098000,0.00,232.77246,74.459915,0,1,0,0.0
Status,,55,32,5,43,1561098000,0.00,148.28708,1.7847049,0,1,0,0.0
Status,,55,33,5,60,1561098000,0.00,101.251816,5.06164,0,1,0,0.0
Status,,55,34,6,5,1575420000,19.60,181.26312,40.45046,0,1,0,15.3
Status,,55,35,6,2,1575420000,0.00,230.73003,0.28060004,0,1,0,0.0
Status,,55,36,6,4,1575420000,0.00,42.66244,21.133043,0,1,1,0.0
Status,,55,37,6,6,1575420000,0.00,58.637394,42.977665,0,1,1,0.0
Status,,55,38,6,9,1575420000,0.00,91.18168,60.797985,0,1,1,0.0
Status,,55,39,6,11,1575420000,0.00,113.42312,23.37156,0,1,0,0.0
Status,,55,40,6,14,1575420000,0.00,282.20267,36.63787,0,1,0,0.0
Status,,55,41,6,27,1575420000,0.00,323.98822,6.0235806,0,1,0,0.0
Status,,55,42,6,30,1575420000,0.00,277.6574,9.807799,0,1,0,0.0
Status,,55,43,6,34,1575420000,0.00,307.64835,47.980015,0,1,1,0.0
Status,,55,44,6,36,1575420000,0.00,89.33495,73.10916,0,1,0,0.0
Status,,55,45,1,1,1176450000,0.00,114.97476,67.21886,0,1,1,0.0
Status,,55,46,1,3,1176450000,0.00,335.0092,75.991234,0,1,1,0.0
Status,,55,47,6,5,1176450000,25.40,181.26312,40.45046,0,1,0,20.099998
Status,,55,48,5,32,1176450000,19.70,232.03215,17.605165,0,1,0,15.200001
Status,,55,49,5,27,1176450000,0.00,271.60492,67.652245,0,1,1,0.0
Status,,55,50,5,28,1176450000,0.00,169.31985,53.42743,0,1,0,0.0
Status,,55,51,5,41,1176450000,0.00,232.77246,74.459915,0,1,0,0.0
Status,,55,52,5,28,1575420000,0.00,169.31985,53.42743,0,1,0,0.0
Status,,55,53,5,32,1575420000,0.00,232.03215,17.605165,0,1,0,0.0
Status,,55,54,5,41,1575420000,0.00,232.77246,74.459915,0,1,0,0.0
Raw,1773860113417,842960159000000,18,0.0,-1457052371258203160,-0.8223915100097656,3108.307020738721,15.345923533483479,214.4618986826479,600,32,0.0,16399,327317331942165,92,19.3,-569.0322265625,3.808000087738037,16,0.0,0.0,1561098000,,,,0,,5,-55.21,15.0,-480.9939270019531,16.587194442749023,,,I,3566387271518597,1,22763523.86960347,-16104110.285737865,-550389.1014464933,82.83886510383417,6.331955282093384,3153.4921106621146,-280680.12520690815,0.0012492454261519015,0.000000021420419216156006,0.000000007450580596923828,-0.00000011920928955078125,0.0,122880.0,0.0,-262144.0,196608.0
Agc,1773860113417,842960159000000,18,0.0,-1457052371258203160,-0.8223915100097656,3108.307020738721,15.345923533483479,214.4618986826479,600,-47.03,1575420000,1
Agc,1773860113417,842960159000000,18,0.0,-1457052371258203160,-0.8223915100097656,3108.307020738721,15.345923533483479,214.4618986826479,600,-41.59,1602000000,3
Agc,1773860113417,842960159000000,18,0.0,-1457052371258203160,-0.8223915100097656,3108.307020738721,15.345923533483479,214.4618986826479,600,-55.21,1561098000,5
Agc,1773860113417,842960159000000,18,0.0,-1457052371258203160,-0.8223915100097656,3108.307020738721,15.345923533483479,214.4618986826479,600,-50.82,1575420000,6
Agc,1773860113417,842960159000000,18,0.0,-1457052371258203160,-0.8223915100097656,3108.307020738721,15.345923533483479,214.4618986826479,600,-38.15,1176450000,1
Agc,1773860113417,842960159000000,18,0.0,-1457052371258203160,-0.8223915100097656,3108.307020738721,15.345923533483479,214.4618986826479,600,-38.15,1176450000,4
Agc,1773860113417,842960159000000,18,0.0,-1457052371258203160,-0.8223915100097656,3108.307020738721,15.345923533483479,214.4618986826479,600,-38.15,1176450000,6
Agc,1773860113417,842960159000000,18,0.0,-1457052371258203160,-0.8223915100097656,3108.307020738721,15.345923533483479,214.4618986826479,600,-38.15,1176450000,5
Agc,1773860113417,842960159000000,18,0.0,-1457052371258203160,-0.8223915100097656,3108.307020738721,15.345923533483479,214.4618986826479,600,-46.9,1176450000,7
Agc,1773860113417,842960159000000,18,0.0,-1457052371258203160,-0.8223915100097656,3108.307020738721,15.345923533483479,214.4618986826479,600,-50.82,1575420000,5
Fix,NLP,45.0558570000,7.6716570000,,,25.0,,1773860113478,,,3566388281020576,,0,,,
Status,,53,0,1,1,1575420000,0.00,114.97476,67.21886,0,1,1,0.0
Status,,53,1,1,2,1575420000,0.00,129.95685,35.490097,0,1,1,0.0
Status,,53,2,1,3,1575420000,0.00,335.0092,75.991234,0,1,1,0.0
Status,,53,3,1,4,1575420000,0.00,188.47209,45.313774,0,1,0,0.0
Status,,53,4,1,6,1575420000,0.00,305.5569,8.186108,0,1,0,0.0
Status,,53,5,1,9,1575420000,0.00,206.89497,16.829588,0,1,0,0.0
Status,,53,6,1,17,1575420000,0.00,280.75687,45.28819,0,1,1,0.0
Status,,53,7,1,19,1575420000,0.00,309.6487,28.101873,0,1,1,0.0
Status,,53,8,1,22,1575420000,0.00,264.611,2.633399,0,1,0,0.0
Status,,53,9,1,28,1575420000,0.00,64.84969,20.348478,0,1,1,0.0
Status,,53,10,1,31,1575420000,0.00,96.04969,20.396229,0,1,1,0.0
Status,,53,11,1,32,1575420000,0.00,38.99796,2.6794817,0,1,1,0.0
Status,,53,12,3,1,1602562600,19.10,226.86365,52.101402,0,1,0,15.1
Status,,53,13,3,22,1600312400,0.00,141.02563,14.912721,0,1,0,0.0
Status,,53,14,3,24,1603125000,0.00,322.07715,52.963287,0,1,1,0.0
Status,,53,15,3,23,1603687600,0.00,139.23198,55.49201,0,1,0,0.0
Status,,53,16,3,7,1604812500,0.00,38.10451,15.366794,0,1,1,0.0
Status,,53,17,3,8,1605375000,0.00,31.420893,68.05777,0,1,0,0.0
Status,,53,18,5,32,1561098000,19.30,232.03215,17.605165,0,1,0,14.999999
Status,,53,19,5,28,1561098000,20.20,169.31985,53.42743,0,1,0,15.900001
Status,,53,20,5,2,1561098000,0.00,96.87013,3.7184985,0,1,0,0.0
Status,,53,21,5,5,1561098000,0.00,117.44919,20.916113,0,1,0,0.0
Status,,53,22,5,6,1561098000,0.00,71.118744,18.742472,0,1,0,0.0
Status,,53,23,5,9,1561098000,0.00,82.70097,17.37283,0,1,0,0.0
Status,,53,24,5,14,1561098000,0.00,51.556248,24.8119,0,1,0,0.0
Status,,53,25,5,16,1561098000,0.00,60.935204,18.253279,0,1,0,0.0
Status,,53,26,5,26,1561098000,0.00,39.16369,0.32833257,0,1,0,0.0
Status,,53,27,5,27,1561098000,0.00,271.60492,67.652245,0,1,1,0.0
Status,,53,28,5,30,1561098000,0.00,315.0862,17.793438,0,1,0,0.0
Status,,53,29,5,33,1561098000,0.00,51.243256,51.356827,0,1,1,0.0
Status,,53,30,5,39,1561098000,0.00,53.844273,19.044825,0,1,0,0.0
Status,,53,31,5,41,1561098000,0.00,232.77246,74.459915,0,1,0,0.0
Status,,53,32,5,43,1561098000,0.00,148.28708,1.7847049,0,1,0,0.0
Status,,53,33,5,60,1561098000,0.00,101.251816,5.06164,0,1,0,0.0
Status,,53,34,6,5,1575420000,19.60,181.26312,40.45046,0,1,0,15.3
Status,,53,35,6,2,1575420000,0.00,230.73003,0.28060004,0,1,0,0.0
Status,,53,36,6,4,1575420000,0.00,42.66244,21.133043,0,1,1,0.0
Status,,53,37,6,6,1575420000,0.00,58.637394,42.977665,0,1,1,0.0
Status,,53,38,6,9,1575420000,0.00,91.18168,60.797985,0,1,1,0.0
Status,,53,39,6,11,1575420000,0.00,113.42312,23.37156,0,1,0,0.0
Status,,53,40,6,14,1575420000,0.00,282.20267,36.63787,0,1,0,0.0
Status,,53,41,6,27,1575420000,0.00,323.98822,6.0235806,0,1,0,0.0
Status,,53,42,6,30,1575420000,0.00,277.6574,9.807799,0,1,0,0.0
Status,,53,43,6,34,1575420000,0.00,307.64835,47.980015,0,1,1,0.0
Status,,53,44,6,36,1575420000,0.00,89.33495,73.10916,0,1,0,0.0
Status,,53,45,1,3,1176450000,0.00,335.0092,75.991234,0,1,1,0.0
Status,,53,46,6,5,1176450000,20.80,181.26312,40.45046,0,1,0,15.499999
Status,,53,47,5,32,1176450000,19.70,232.03215,17.605165,0,1,0,15.200001
Status,,53,48,5,28,1176450000,0.00,169.31985,53.42743,0,1,0,0.0
Status,,53,49,5,41,1176450000,0.00,232.77246,74.459915,0,1,0,0.0
Status,,53,50,5,28,1575420000,0.00,169.31985,53.42743,0,1,0,0.0
Status,,53,51,5,32,1575420000,0.00,232.03215,17.605165,0,1,0,0.0
Status,,53,52,5,41,1575420000,0.00,232.77246,74.459915,0,1,0,0.0
Raw,1773860114417,842961159000000,18,0.0,-1457052371258203145,-0.4741954803466797,3327.3696899414062,15.345923533483479,222.3983736860354,600,1,0.0,49359,78914350098688,92,19.1,-445.9671325683594,2.261500120162964,16,0.0,0.0,1602562600,,,,0,,3,-41.62,15.100000000000001,4855.9697265625,17.867748260498047,,,C,3566388276365420,1,22754176.465534274,-6052701.5161465155,9794793.917044058,-1277.6834583829368,440.6637888975115,3244.3567768982407,48679.29491504827,0.0002726596521824831,0.000000021420419216156006,0.000000007450580596923828,-0.00000011920928955078125,0.0,122880.0,0.0,-262144.0,196608.0
Raw,1773860114417,842961159000000,18,0.0,-1457052371258203145,-0.4741954803466797,3327.3696899414062,15.345923533483479,222.3983736860354,600,5,0.0,81935,327332333676895,18,20.8,-485.9188232421875,1.9809999465942383,16,0.0,0.0,1176450000,,,,0,,6,-37.51,15.5,-35.65212631225586,6674.78125,,,Q,3566388276365420,1,29273698.01522797,3518837.0043256776,2553314.7233870192,-250.58664776606227,-89.49341386179924,3005.2837008842725,6180.323558727273,0.0008390671200686484,0.000000021420419216156006,0.000000007450580596923828,-0.00000011920928955078125,0.0,122880.0,0.0,-262144.0,196608.0
Agc,1773860114417,842961159000000,18,0.0,-1457052371258203145,-0.4741954803466797,3327.3696899414062,15.345923533483479,222.3983736860354,600,-47.08,1575420000,1
Agc,1773860114417,842961159000000,18,0.0,-1457052371258203145,-0.4741954803466797,3327.3696899414062,15.345923533483479,222.3983736860354,600,-41.62,1602000000,3
Agc,1773860114417,842961159000000,18,0.0,-1457052371258203145,-0.4741954803466797,3327.3696899414062,15.345923533483479,222.3983736860354,600,-55.23,1561098000,5
Agc,1773860114417,842961159000000,18,0.0,-1457052371258203145,-0.4741954803466797,3327.3696899414062,15.345923533483479,222.3983736860354,600,-50.85,1575420000,6
Agc,1773860114417,842961159000000,18,0.0,-1457052371258203145,-0.4741954803466797,3327.3696899414062,15.345923533483479,222.3983736860354,600,-37.51,1176450000,1
Agc,1773860114417,842961159000000,18,0.0,-1457052371258203145,-0.4741954803466797,3327.3696899414062,15.345923533483479,222.3983736860354,600,-37.51,1176450000,4
Agc,1773860114417,842961159000000,18,0.0,-1457052371258203145,-0.4741954803466797,3327.3696899414062,15.345923533483479,222.3983736860354,600,-37.51,1176450000,6
Agc,1773860114417,842961159000000,18,0.0,-1457052371258203145,-0.4741954803466797,3327.3696899414062,15.345923533483479,222.3983736860354,600,-37.51,1176450000,5
Agc,1773860114417,842961159000000,18,0.0,-1457052371258203145,-0.4741954803466797,3327.3696899414062,15.345923533483479,222.3983736860354,600,-46.31,1176450000,7
Agc,1773860114417,842961159000000,18,0.0,-1457052371258203145,-0.4741954803466797,3327.3696899414062,15.345923533483479,222.3983736860354,600,-50.85,1575420000,5
Status,,52,0,1,1,1575420000,0.00,114.97476,67.21886,0,1,1,0.0
Status,,52,1,1,2,1575420000,0.00,129.95685,35.490097,0,1,1,0.0
Status,,52,2,1,3,1575420000,0.00,335.0092,75.991234,0,1,1,0.0
Status,,52,3,1,4,1575420000,0.00,188.47209,45.313774,0,1,0,0.0
Status,,52,4,1,6,1575420000,0.00,305.5569,8.186108,0,1,0,0.0
Status,,52,5,1,9,1575420000,0.00,206.89497,16.829588,0,1,0,0.0
Status,,52,6,1,17,1575420000,0.00,280.75687,45.28819,0,1,1,0.0
Status,,52,7,1,19,1575420000,0.00,309.6487,28.101873,0,1,1,0.0
Status,,52,8,1,22,1575420000,0.00,264.611,2.633399,0,1,0,0.0
Status,,52,9,1,28,1575420000,0.00,64.84969,20.348478,0,1,1,0.0
Status,,52,10,1,31,1575420000,0.00,96.04969,20.396229,0,1,1,0.0
Status,,52,11,1,32,1575420000,0.00,38.99796,2.6794817,0,1,1,0.0
Status,,52,12,3,1,1602562600,19.10,226.86365,52.101402,0,1,0,15.1
Status,,52,13,3,22,1600312400,0.00,141.02563,14.912721,0,1,0,0.0
Status,,52,14,3,24,1603125000,0.00,322.07715,52.963287,0,1,1,0.0
Status,,52,15,3,23,1603687600,0.00,139.23198,55.49201,0,1,0,0.0
Status,,52,16,3,7,1604812500,0.00,38.10451,15.366794,0,1,1,0.0
Status,,52,17,3,8,1605375000,0.00,31.420893,68.05777,0,1,0,0.0
Status,,52,18,5,32,1561098000,20.90,232.03215,17.605165,0,1,0,16.599998
Status,,52,19,5,28,1561098000,20.20,169.31985,53.42743,0,1,0,15.900001
Status,,52,20,5,2,1561098000,0.00,96.87013,3.7184985,0,1,0,0.0
Status,,52,21,5,5,1561098000,0.00,117.44919,20.916113,0,1,0,0.0
Status,,52,22,5,6,1561098000,0.00,71.118744,18.742472,0,1,0,0.0
Status,,52,23,5,9,1561098000,0.00,82.70097,17.37283,0,1,0,0.0
Status,,52,24,5,14,1561098000,0.00,51.556248,24.8119,0,1,0,0.0
Status,,52,25,5,16,1561098000,0.00,60.935204,18.253279,0,1,0,0.0
Status,,52,26,5,26,1561098000,0.00,39.16369,0.32833257,0,1,0,0.0
Status,,52,27,5,27,1561098000,0.00,271.60492,67.652245,0,1,1,0.0
Status,,52,28,5,30,1561098000,0.00,315.0862,17.793438,0,1,0,0.0
Status,,52,29,5,33,1561098000,0.00,51.243256,51.356827,0,1,1,0.0
Status,,52,30,5,39,1561098000,0.00,53.844273,19.044825,0,1,0,0.0
Status,,52,31,5,41,1561098000,0.00,232.77246,74.459915,0,1,0,0.0
Status,,52,32,5,43,1561098000,0.00,148.28708,1.7847049,0,1,0,0.0
Status,,52,33,5,60,1561098000,0.00,101.251816,5.06164,0,1,0,0.0
Status,,52,34,6,5,1575420000,19.60,181.26312,40.45046,0,1,0,15.3
Status,,52,35,6,2,1575420000,0.00,230.73003,0.28060004,0,1,0,0.0
Status,,52,36,6,4,1575420000,0.00,42.66244,21.133043,0,1,1,0.0
Status,,52,37,6,6,1575420000,0.00,58.637394,42.977665,0,1,1,0.0
Status,,52,38,6,9,1575420000,0.00,91.18168,60.797985,0,1,1,0.0
Status,,52,39,6,11,1575420000,0.00,113.42312,23.37156,0,1,0,0.0
Status,,52,40,6,14,1575420000,0.00,282.20267,36.63787,0,1,0,0.0
Status,,52,41,6,27,1575420000,0.00,323.98822,6.0235806,0,1,0,0.0
Status,,52,42,6,30,1575420000,0.00,277.6574,9.807799,0,1,0,0.0
Status,,52,43,6,34,1575420000,0.00,307.64835,47.980015,0,1,1,0.0
Status,,52,44,6,36,1575420000,0.00,89.33495,73.10916,0,1,0,0.0
Status,,52,45,6,5,1176450000,23.10,181.26312,40.45046,0,1,0,17.8
Status,,52,46,5,32,1176450000,17.40,232.03215,17.605165,0,1,0,12.9
Status,,52,47,5,27,1176450000,0.00,271.60492,67.652245,0,1,1,0.0
Status,,52,48,5,28,1176450000,0.00,169.31985,53.42743,0,1,0,0.0
Status,,52,49,5,32,1575420000,17.40,232.03215,17.605165,0,1,0,10.4
Status,,52,50,5,28,1575420000,0.00,169.31985,53.42743,0,1,0,0.0
Status,,52,51,5,41,1575420000,0.00,232.77246,74.459915,0,1,0,0.0
Raw,1773860115417,842962159000000,18,0.0,-1457052371258203130,-0.12599945068359375,3554.621711373329,15.345923533483479,230.5875564733369,600,32,0.0,16399,327319331945902,80,20.9,-567.7743530273438,1.8730000257492065,16,0.0,0.0,1561098000,,,,0,,5,-55.07,16.599999999999998,-480.9939270019531,16.587194442749023,,,I,3566389274795888,1,22763688.954999324,-16104097.225314999,-544082.0852867771,82.24624089890972,6.728471893480934,3153.5122257989497,-280680.12270840094,0.0012492570676840842,0.000000021420419216156006,0.000000007450580596923828,-0.00000011920928955078125,0.0,122880.0,0.0,-262144.0,196608.0
Raw,1773860115417,842962159000000,18,0.0,-1457052371258203130,-0.12599945068359375,3554.621711373329,15.345923533483479,230.5875564733369,600,5,0.0,81935,327333333678510,14,23.1,-485.4474182128906,0.9509999752044678,16,0.0,0.0,1176450000,,,,0,,6,-38.22,17.8,-35.63650131225586,7129.28662109375,,,Q,3566389274795888,1,29273447.274381988,3518747.511347878,2556319.9922970333,-250.89423384540126,-89.49224517974511,3005.2444044475374,6180.3243977969805,0.0008390695811613114,0.000000021420419216156006,0.000000007450580596923828,-0.00000011920928955078125,0.0,122880.0,0.0,-262144.0,196608.0
Raw,1773860115417,842962159000000,18,0.0,-1457052371258203130,-0.12599945068359375,3554.621711373329,15.345923533483479,230.5875564733369,600,32,0.0,16399,327319331945949,27,17.4,-568.1646118164062,3.818000078201294,16,0.0,0.0,1176450000,,,,0,,5,-38.22,12.899999999999999,-505.352294921875,7095.43115234375,,,P,3566389274795888,1,22763688.95500318,-16104097.225314703,-544082.085138561,82.24624088498436,6.728471902801452,3153.5122257994203,-280680.1227084009,0.0012492570676840842,0.000000021420419216156006,0.000000007450580596923828,-0.00000011920928955078125,0.0,122880.0,0.0,-262144.0,196608.0
Raw,1773860115417,842962159000000,18,0.0,-1457052371258203130,-0.12599945068359375,3554.621711373329,15.345923533483479,230.5875564733369,600,32,0.0,16399,327319331946018,34,17.4,-567.8173217773438,5.588000297546387,16,0.0,0.0,1575420000,,,,0,,5,-50.87,10.399999999999999,-490.2925720214844,7097.44189453125,,,P,3566389274795888,1,22763688.95500888,-16104097.225314206,-544082.084920971,82.24624086454104,6.728471916483951,3153.5122258001097,-280680.1227084008,0.0012492570676840842,0.000000021420419216156006,0.000000007450580596923828,-0.00000011920928955078125,0.0,122880.0,0.0,-262144.0,196608.0
Agc,1773860115417,842962159000000,18,0.0,-1457052371258203130,-0.12599945068359375,3554.621711373329,15.345923533483479,230.5875564733369,600,-47.09,1575420000,1
Agc,1773860115417,842962159000000,18,0.0,-1457052371258203130,-0.12599945068359375,3554.621711373329,15.345923533483479,230.5875564733369,600,-41.63,1602000000,3
Agc,1773860115417,842962159000000,18,0.0,-1457052371258203130,-0.12599945068359375,3554.621711373329,15.345923533483479,230.5875564733369,600,-55.07,1561098000,5
Agc,1773860115417,842962159000000,18,0.0,-1457052371258203130,-0.12599945068359375,3554.621711373329,15.345923533483479,230.5875564733369,600,-50.87,1575420000,6
Agc,1773860115417,842962159000000,18,0.0,-1457052371258203130,-0.12599945068359375,3554.621711373329,15.345923533483479,230.5875564733369,600,-38.22,1176450000,1
Agc,1773860115417,842962159000000,18,0.0,-1457052371258203130,-0.12599945068359375,3554.621711373329,15.345923533483479,230.5875564733369,600,-38.22,1176450000,4
Agc,1773860115417,842962159000000,18,0.0,-1457052371258203130,-0.12599945068359375,3554.621711373329,15.345923533483479,230.5875564733369,600,-38.22,1176450000,6
Agc,1773860115417,842962159000000,18,0.0,-1457052371258203130,-0.12599945068359375,3554.621711373329,15.345923533483479,230.5875564733369,600,-38.22,1176450000,5
Agc,1773860115417,842962159000000,18,0.0,-1457052371258203130,-0.12599945068359375,3554.621711373329,15.345923533483479,230.5875564733369,600,-47.11,1176450000,7
Agc,1773860115417,842962159000000,18,0.0,-1457052371258203130,-0.12599945068359375,3554.621711373329,15.345923533483479,230.5875564733369,600,-50.87,1575420000,5
Status,,52,0,1,1,1575420000,0.00,114.97476,67.21886,0,1,1,0.0
Status,,52,1,1,2,1575420000,0.00,129.95685,35.490097,0,1,1,0.0
Status,,52,2,1,3,1575420000,0.00,335.0092,75.991234,0,1,1,0.0
Status,,52,3,1,4,1575420000,0.00,188.47209,45.313774,0,1,0,0.0
Status,,52,4,1,6,1575420000,0.00,305.5569,8.186108,0,1,0,0.0
Status,,52,5,1,9,1575420000,0.00,206.89497,16.829588,0,1,0,0.0
Status,,52,6,1,17,1575420000,0.00,280.75687,45.28819,0,1,1,0.0
Status,,52,7,1,19,1575420000,0.00,309.6487,28.101873,0,1,1,0.0
Status,,52,8,1,22,1575420000,0.00,264.611,2.633399,0,1,0,0.0
Status,,52,9,1,28,1575420000,0.00,64.84969,20.348478,0,1,1,0.0
Status,,52,10,1,31,1575420000,0.00,96.04969,20.396229,0,1,1,0.0
Status,,52,11,1,32,1575420000,0.00,38.99796,2.6794817,0,1,1,0.0
Status,,52,12,3,1,1602562600,19.10,226.86365,52.101402,0,1,0,15.1
Status,,52,13,3,22,1600312400,0.00,141.02563,14.912721,0,1,0,0.0
Status,,52,14,3,24,1603125000,0.00,322.07715,52.963287,0,1,1,0.0
Status,,52,15,3,23,1603687600,0.00,139.23198,55.49201,0,1,0,0.0
Status,,52,16,3,7,1604812500,0.00,38.10451,15.366794,0,1,1,0.0
Status,,52,17,3,8,1605375000,0.00,31.420893,68.05777,0,1,0,0.0
Status,,52,18,5,32,1561098000,20.90,232.03215,17.605165,0,1,0,16.599998
Status,,52,19,5,28,1561098000,20.20,169.31985,53.42743,0,1,0,15.900001
Status,,52,20,5,2,1561098000,0.00,96.87013,3.7184985,0,1,0,0.0
Status,,52,21,5,5,1561098000,0.00,117.44919,20.916113,0,1,0,0.0
Status,,52,22,5,6,1561098000,0.00,71.118744,18.742472,0,1,0,0.0
Status,,52,23,5,9,1561098000,0.00,82.70097,17.37283,0,1,0,0.0
Status,,52,24,5,14,1561098000,0.00,51.556248,24.8119,0,1,0,0.0
Status,,52,25,5,16,1561098000,0.00,60.935204,18.253279,0,1,0,0.0
Status,,52,26,5,26,1561098000,0.00,39.16369,0.32833257,0,1,0,0.0
Status,,52,27,5,27,1561098000,0.00,271.60492,67.652245,0,1,1,0.0
Status,,52,28,5,30,1561098000,0.00,315.0862,17.793438,0,1,0,0.0
Status,,52,29,5,33,1561098000,0.00,51.243256,51.356827,0,1,1,0.0
Status,,52,30,5,39,1561098000,0.00,53.844273,19.044825,0,1,0,0.0
Status,,52,31,5,41,1561098000,0.00,232.77246,74.459915,0,1,0,0.0
Status,,52,32,5,43,1561098000,0.00,148.28708,1.7847049,0,1,0,0.0
Status,,52,33,5,60,1561098000,0.00,101.251816,5.06164,0,1,0,0.0
Status,,52,34,6,5,1575420000,19.60,181.26312,40.45046,0,1,0,15.3
Status,,52,35,6,2,1575420000,0.00,230.73003,0.28060004,0,1,0,0.0
Status,,52,36,6,4,1575420000,0.00,42.66244,21.133043,0,1,1,0.0
Status,,52,37,6,6,1575420000,0.00,58.637394,42.977665,0,1,1,0.0
Status,,52,38,6,9,1575420000,0.00,91.18168,60.797985,0,1,1,0.0
Status,,52,39,6,11,1575420000,0.00,113.42312,23.37156,0,1,0,0.0
Status,,52,40,6,14,1575420000,0.00,282.20267,36.63787,0,1,0,0.0
Status,,52,41,6,27,1575420000,0.00,323.98822,6.0235806,0,1,0,0.0
Status,,52,42,6,30,1575420000,0.00,277.6574,9.807799,0,1,0,0.0
Status,,52,43,6,34,1575420000,0.00,307.64835,47.980015,0,1,1,0.0
Status,,52,44,6,36,1575420000,0.00,89.33495,73.10916,0,1,0,0.0
Status,,52,45,6,5,1176450000,23.50,181.26312,40.45046,0,1,0,18.2
Status,,52,46,5,32,1176450000,17.40,232.03215,17.605165,0,1,0,12.9
Status,,52,47,5,28,1176450000,0.00,169.31985,53.42743,0,1,0,0.0
Status,,52,48,5,41,1176450000,0.00,232.77246,74.459915,0,1,0,0.0
Status,,52,49,5,32,1575420000,17.40,232.03215,17.605165,0,1,0,10.4
Status,,52,50,5,28,1575420000,0.00,169.31985,53.42743,0,1,0,0.0
Status,,52,51,5,41,1575420000,0.00,232.77246,74.459915,0,1,0,0.0
Raw,1773860116417,842963159000000,18,0.0,-1457052371258203112,-0.18500137329101562,3747.762879356742,17.940612793057927,196.47679004206358,600,5,0.0,81935,327334333680135,12,23.5,-485.75323486328125,0.9509999752044678,16,0.0,0.0,1176450000,,,,0,,6,-38.07,18.2,9.45724868774414,6648.9248046875,,,Q,3566390272679013,1,29273196.2259483,3518658.019560565,2559325.221917482,-251.20181719086887,-89.49103073308616,3005.205061789168,6180.325236869156,0.0008390720431634691,0.000000021420419216156006,0.000000007450580596923828,-0.00000011920928955078125,0.0,122880.0,0.0,-262144.0,196608.0
Agc,1773860116417,842963159000000,18,0.0,-1457052371258203112,-0.18500137329101562,3747.762879356742,17.940612793057927,196.47679004206358,600,-47.01,1575420000,1
Agc,1773860116417,842963159000000,18,0.0,-1457052371258203112,-0.18500137329101562,3747.762879356742,17.940612793057927,196.47679004206358,600,-41.55,1602000000,3
Agc,1773860116417,842963159000000,18,0.0,-1457052371258203112,-0.18500137329101562,3747.762879356742,17.940612793057927,196.47679004206358,600,-55.0,1561098000,5
Agc,1773860116417,842963159000000,18,0.0,-1457052371258203112,-0.18500137329101562,3747.762879356742,17.940612793057927,196.47679004206358,600,-50.81,1575420000,6
Agc,1773860116417,842963159000000,18,0.0,-1457052371258203112,-0.18500137329101562,3747.762879356742,17.940612793057927,196.47679004206358,600,-38.07,1176450000,1
Agc,1773860116417,842963159000000,18,0.0,-1457052371258203112,-0.18500137329101562,3747.762879356742,17.940612793057927,196.47679004206358,600,-38.07,1176450000,4
Agc,1773860116417,842963159000000,18,0.0,-1457052371258203112,-0.18500137329101562,3747.762879356742,17.940612793057927,196.47679004206358,600,-38.07,1176450000,6
Agc,1773860116417,842963159000000,18,0.0,-1457052371258203112,-0.18500137329101562,3747.762879356742,17.940612793057927,196.47679004206358,600,-38.07,1176450000,5
Agc,1773860116417,842963159000000,18,0.0,-1457052371258203112,-0.18500137329101562,3747.762879356742,17.940612793057927,196.47679004206358,600,-47.0,1176450000,7
Agc,1773860116417,842963159000000,18,0.0,-1457052371258203112,-0.18500137329101562,3747.762879356742,17.940612793057927,196.47679004206358,600,-50.81,1575420000,5
Fix,NLP,45.0558570000,7.6716570000,,,25.0,,1773860116483,,,3566391286731929,,0,,,
Fix,FLP,45.0560472000,7.6716487000,297.8000183105469,0.33838537,15.402,225.68481,1773860114438,1.5,45.0,3566389240000000,0.6841397,0,,,
Status,,52,0,1,1,1575420000,0.00,114.97476,67.21886,0,1,1,0.0
Status,,52,1,1,2,1575420000,0.00,129.95685,35.490097,0,1,1,0.0
Status,,52,2,1,3,1575420000,0.00,335.0092,75.991234,0,1,1,0.0
Status,,52,3,1,4,1575420000,0.00,188.47209,45.313774,0,1,0,0.0
Status,,52,4,1,6,1575420000,0.00,305.5569,8.186108,0,1,0,0.0
Status,,52,5,1,9,1575420000,0.00,206.89497,16.829588,0,1,0,0.0
Status,,52,6,1,17,1575420000,0.00,280.75687,45.28819,0,1,1,0.0
Status,,52,7,1,19,1575420000,0.00,309.6487,28.101873,0,1,1,0.0
Status,,52,8,1,22,1575420000,0.00,264.611,2.633399,0,1,0,0.0
Status,,52,9,1,28,1575420000,0.00,64.84969,20.348478,0,1,1,0.0
Status,,52,10,1,31,1575420000,0.00,96.04969,20.396229,0,1,1,0.0
Status,,52,11,1,32,1575420000,0.00,38.99796,2.6794817,0,1,1,0.0
Status,,52,12,3,1,1602562600,19.10,226.86365,52.101402,0,1,0,15.1
Status,,52,13,3,22,1600312400,0.00,141.02563,14.912721,0,1,0,0.0
Status,,52,14,3,24,1603125000,0.00,322.07715,52.963287,0,1,1,0.0
Status,,52,15,3,23,1603687600,0.00,139.23198,55.49201,0,1,0,0.0
Status,,52,16,3,7,1604812500,0.00,38.10451,15.366794,0,1,1,0.0
Status,,52,17,3,8,1605375000,0.00,31.420893,68.05777,0,1,0,0.0
Status,,52,18,5,32,1561098000,20.50,232.03215,17.605165,0,1,0,16.2
Status,,52,19,5,28,1561098000,20.20,169.31985,53.42743,0,1,0,15.900001
Status,,52,20,5,2,1561098000,0.00,96.87013,3.7184985,0,1,0,0.0
Status,,52,21,5,5,1561098000,0.00,117.44919,20.916113,0,1,0,0.0
Status,,52,22,5,6,1561098000,0.00,71.118744,18.742472,0,1,0,0.0
Status,,52,23,5,9,1561098000,0.00,82.70097,17.37283,0,1,0,0.0
Status,,52,24,5,14,1561098000,0.00,51.556248,24.8119,0,1,0,0.0
Status,,52,25,5,16,1561098000,0.00,60.935204,18.253279,0,1,0,0.0
Status,,52,26,5,26,1561098000,0.00,39.16369,0.32833257,0,1,0,0.0
Status,,52,27,5,27,1561098000,0.00,271.60492,67.652245,0,1,1,0.0
Status,,52,28,5,30,1561098000,0.00,315.0862,17.793438,0,1,0,0.0
Status,,52,29,5,33,1561098000,0.00,51.243256,51.356827,0,1,1,0.0
Status,,52,30,5,39,1561098000,0.00,53.844273,19.044825,0,1,0,0.0
Status,,52,31,5,41,1561098000,0.00,232.77246,74.459915,0,1,0,0.0
Status,,52,32,5,43,1561098000,0.00,148.28708,1.7847049,0,1,0,0.0
Status,,52,33,5,60,1561098000,0.00,101.251816,5.06164,0,1,0,0.0
Status,,52,34,6,5,1575420000,19.60,181.26312,40.45046,0,1,0,15.3
Status,,52,35,6,2,1575420000,0.00,230.73003,0.28060004,0,1,0,0.0
Status,,52,36,6,4,1575420000,0.00,42.66244,21.133043,0,1,1,0.0
Status,,52,37,6,6,1575420000,0.00,58.637394,42.977665,0,1,1,0.0
Status,,52,38,6,9,1575420000,0.00,91.18168,60.797985,0,1,1,0.0
Status,,52,39,6,11,1575420000,0.00,113.42312,23.37156,0,1,0,0.0
Status,,52,40,6,14,1575420000,0.00,282.20267,36.63787,0,1,0,0.0
Status,,52,41,6,27,1575420000,0.00,323.98822,6.0235806,0,1,0,0.0
Status,,52,42,6,30,1575420000,0.00,277.6574,9.807799,0,1,0,0.0
Status,,52,43,6,34,1575420000,0.00,307.64835,47.980015,0,1,1,0.0
Status,,52,44,6,36,1575420000,0.00,89.33495,73.10916,0,1,0,0.0
Status,,52,45,6,5,1176450000,23.50,181.26312,40.45046,0,1,0,18.2
Status,,52,46,5,32,1176450000,17.40,232.03215,17.605165,0,1,0,12.9
Status,,52,47,5,27,1176450000,0.00,271.60492,67.652245,0,1,1,0.0
Status,,52,48,5,28,1176450000,0.00,169.31985,53.42743,0,1,0,0.0
Status,,52,49,5,32,1575420000,22.20,232.03215,17.605165,0,1,0,15.200001
Status,,52,50,5,28,1575420000,0.00,169.31985,53.42743,0,1,0,0.0
Status,,52,51,5,41,1575420000,0.00,232.77246,74.459915,0,1,0,0.0
Raw,1773860117417,842964159000000,18,0.0,-1457052371258203095,-0.0635671615600586,3944.0905675292015,17.116217270340577,199.66309672657204,600,32,0.0,16399,327321331949716,80,20.5,-566.7469482421875,1.8730000257492065,16,0.0,0.0,1561098000,,,,0,,5,-55.06,16.2,-480.9939270019531,16.587194442749023,,,I,3566391270209533,1,22763852.8552625,-16104083.371684633,-537775.0288857372,81.65372836533054,7.125160798158571,3153.5321090904354,-280680.12020987045,0.0012492687092162669,0.000000021420419216156006,0.000000007450580596923828,-0.00000011920928955078125,0.0,122880.0,0.0,-262144.0,196608.0
Raw,1773860117417,842964159000000,18,0.0,-1457052371258203095,-0.0635671615600586,3944.0905675292015,17.116217270340577,199.66309672657204,600,32,0.0,16399,327321331949718,18,22.2,-567.7982788085938,2.008000135421753,16,0.0,0.0,1575420000,,,,0,,5,-50.84,15.2,-444.8863220214844,7043.45556640625,,,P,3566391270209533,1,22763852.855262667,-16104083.371684613,-537775.0288794321,81.653728364738,7.125160798555168,3153.5321090904545,-280680.12020987045,0.0012492687092162669,0.000000021420419216156006,0.000000007450580596923828,-0.00000011920928955078125,0.0,122880.0,0.0,-262144.0,196608.0
Agc,1773860117417,842964159000000,18,0.0,-1457052371258203095,-0.0635671615600586,3944.0905675292015,17.116217270340577,199.66309672657204,600,-47.04,1575420000,1
Agc,1773860117417,842964159000000,18,0.0,-1457052371258203095,-0.0635671615600586,3944.0905675292015,17.116217270340577,199.66309672657204,600,-41.59,1602000000,3
Agc,1773860117417,842964159000000,18,0.0,-1457052371258203095,-0.0635671615600586,3944.0905675292015,17.116217270340577,199.66309672657204,600,-55.06,1561098000,5
