# 
# Header Description:
# 
# Version: v3.1.1.2 Platform: 15 Manufacturer: OPPO Model: PKU110 GNSS Hardware Model Name: qcom;MPSS.DE.7.0-02024.3-PAKALA_GEN_PACK-1.81186.170;
# 
# Raw,utcTimeMillis,TimeNanos,LeapSecond,TimeUncertaintyNanos,FullBiasNanos,BiasNanos,BiasUncertaintyNanos,DriftNanosPerSecond,DriftUncertaintyNanosPerSecond,HardwareClockDiscontinuityCount,Svid,TimeOffsetNanos,State,ReceivedSvTimeNanos,ReceivedSvTimeUncertaintyNanos,Cn0DbHz,PseudorangeRateMetersPerSecond,PseudorangeRateUncertaintyMetersPerSecond,AccumulatedDeltaRangeState,AccumulatedDeltaRangeMeters,AccumulatedDeltaRangeUncertaintyMeters,CarrierFrequencyHz,CarrierCycles,CarrierPhase,CarrierPhaseUncertainty,MultipathIndicator,SnrInDb,ConstellationType,AgcDb,BasebandCn0DbHz,FullInterSignalBiasNanos,FullInterSignalBiasUncertaintyNanos,SatelliteInterSignalBiasNanos,SatelliteInterSignalBiasUncertaintyNanos,CodeType,ChipsetElapsedRealtimeNanos,IsFullTracking,SvPositionEcefXMeters,SvPositionEcefYMeters,SvPositionEcefZMeters,SvVelocityEcefXMetersPerSecond,SvVelocityEcefYMetersPerSecond,SvVelocityEcefZMetersPerSecond,SvClockBiasMeters,SvClockDriftMetersPerSecond,KlobucharAlpha0,KlobucharAlpha1,KlobucharAlpha2,KlobucharAlpha3,KlobucharBeta0,KlobucharBeta1,KlobucharBeta2,KlobucharBeta3
# 
# UncalAccel,utcTimeMillis,elapsedRealtimeNanos,UncalAccelXMps2,UncalAccelYMps2,UncalAccelZMps2,BiasXMps2,BiasYMps2,BiasZMps2,CalibrationAccuracy
# 
# Accel,utcTimeMillis,elapsedRealtimeNanos,AccelXMps2,AccelYMps2,AccelZMps2,CalibrationAccuracy
# 
# UncalGyro,utcTimeMillis,elapsedRealtimeNanos,UncalGyroXRadPerSec,UncalGyroYRadPerSec,UncalGyroZRadPerSec,DriftXRadPerSec,DriftYRadPerSec,DriftZRadPerSec,CalibrationAccuracy
# 
# Gyro,utcTimeMillis,elapsedRealtimeNanos,GyroXRadPerSec,GyroYRadPerSec,GyroZRadPerSec,CalibrationAccuracy
# 
# UncalMag,utcTimeMillis,elapsedRealtimeNanos,UncalMagXMicroT,UncalMagYMicroT,UncalMagZMicroT,BiasXMicroT,BiasYMicroT,BiasZMicroT,CalibrationAccuracy
# 
# Mag,utcTimeMillis,elapsedRealtimeNanos,MagXMicroT,MagYMicroT,MagZMicroT,CalibrationAccuracy
# 
# Pressure,utcTimeMillis,elapsedRealtimeNanos,PressureHpa,CalibrationAccuracy
# 
# OrientationDeg,utcTimeMillis,elapsedRealtimeNanos,yawDeg,rollDeg,pitchDeg,CalibrationAccuracy
# 
# Fix,Provider,LatitudeDegrees,LongitudeDegrees,AltitudeMeters,SpeedMps,AccuracyMeters,BearingDegrees,UnixTimeMillis,SpeedAccuracyMps,BearingAccuracyDegrees,elapsedRealtimeNanos,VerticalAccuracyMeters,MockLocation,NumberOfUsedSignals,VerticalSpeedAccuracyMps,SolutionType
# 
# Nav,Svid,Type,Status,MessageId,Sub-messageId,Data(Bytes)
# 
# Status,UnixTimeMillis,SignalCount,SignalIndex,ConstellationType,Svid,CarrierFrequencyHz,Cn0DbHz,AzimuthDegrees,ElevationDegrees,UsedInFix,HasAlmanacData,HasEphemerisData,BasebandCn0DbHz
# 
# Agc,utcTimeMillis,TimeNanos,LeapSecond,TimeUncertaintyNanos,FullBiasNanos,BiasNanos,BiasUncertaintyNanos,DriftNanosPerSecond,DriftUncertaintyNanosPerSecond,HardwareClockDiscontinuityCount,AgcDb,CarrierFrequencyHz,ConstellationType
# 
# GameRotationVector,utcTimeMillis,elapsedRealtimeNanos,x,y,z,w
# 
Fix,FLP,45.0496092000,7.6493170000,301.0,0.084592715,3.0,,1773902765957,0.115949266,,1420544742722268,1.0513872,0,,,
Status,,77,0,1,6,1575420030,18.90,67.12939,19.002077,1,1,1,15.299999
Status,,77,1,1,11,1575420030,16.90,109.87427,16.118885,1,1,1,13.299999
Status,,77,2,1,12,1575420030,29.10,17.182713,77.86156,1,1,1,25.5
Status,,77,3,1,19,1575420030,19.80,43.122433,18.560297,1,1,1,16.199999
Status,,77,4,1,24,1575420030,23.50,131.2962,50.460316,1,1,1,19.9
Status,,77,5,1,25,1575420030,29.10,270.61676,51.076054,1,1,1,25.5
Status,,77,6,1,29,1575420030,34.10,198.89241,18.241838,1,1,1,30.499998
Status,,77,7,1,32,1575420030,17.10,298.90353,36.047413,1,1,1,13.5
Status,,77,8,1,28,1575420030,0.00,304.8965,4.2468977,0,1,1,0.0
Status,,77,9,3,6,1599750020,28.50,216.3177,22.461636,1,1,1,24.5
Status,,77,10,3,18,1600312450,18.40,98.9035,39.418655,0,1,1,14.4
Status,,77,11,3,9,1600875010,20.60,299.66592,43.388744,1,1,1,16.6
Status,,77,12,3,16,1601437440,20.10,40.311573,57.01262,1,1,1,16.1
Status,,77,13,3,15,1602000000,14.80,80.10686,12.435779,0,1,1,10.8
Status,,77,14,3,19,1603687550,21.60,151.24452,13.903888,1,1,1,17.6
Status,,77,15,3,7,1604812540,22.60,286.05414,40.056625,0,1,1,18.6
Status,,77,16,3,8,1605374980,17.10,337.03223,14.131338,0,1,1,13.1
Status,,77,17,5,45,1561097980,29.20,302.6061,63.24372,1,1,1,24.900002
Status,,77,18,5,42,1561097980,14.80,317.97278,15.903522,1,1,1,10.5
Status,,77,19,5,36,1561097980,19.40,79.18439,58.61139,1,1,1,15.099999
Status,,77,20,5,30,1561097980,22.60,85.143166,42.47979,1,1,1,18.3
Status,,77,21,5,29,1561097980,19.40,152.49452,33.502506,1,1,1,15.099999
Status,,77,22,5,27,1561097980,18.10,34.745094,10.068578,0,1,1,13.8
Status,,77,23,5,26,1561097980,22.00,283.0182,8.338497,1,1,1,17.7
Status,,77,24,5,22,1561097980,31.20,215.68849,13.774812,1,1,1,26.900002
Status,,77,25,5,21,1561097980,27.10,267.41748,28.319427,1,1,1,22.8
Status,,77,26,5,10,1561097980,15.00,52.535454,22.733608,0,1,1,10.7
Status,,77,27,5,5,1561097980,0.00,121.95501,15.323538,0,1,1,0.0
Status,,77,28,5,7,1561097980,0.00,47.501938,11.517485,0,1,1,0.0
Status,,77,29,5,14,1561097980,0.00,339.8065,2.0646675,0,1,1,0.0
Status,,77,30,5,40,1561097980,0.00,34.608704,6.109246,0,1,1,0.0
Status,,77,31,5,60,1561097980,0.00,103.99749,2.197759,0,1,1,0.0
Status,,77,32,6,7,1575420030,27.90,188.84973,40.21364,1,1,1,23.599998
Status,,77,33,6,15,1575420030,21.20,135.27818,1.5930611,0,1,1,16.900002
Status,,77,34,6,21,1575420030,24.70,250.34738,15.42757,1,1,1,20.400002
Status,,77,35,6,27,1575420030,24.50,266.85406,67.62244,1,1,1,20.2
Status,,77,36,6,29,1575420030,22.60,273.44736,54.50906,1,1,1,18.3
Status,,77,37,6,30,1575420030,17.40,55.443436,55.52469,1,1,1,13.099999
Status,,77,38,6,34,1575420030,20.30,89.13873,14.52749,0,1,1,15.999999
Status,,77,39,6,2,1575420030,0.00,65.02482,5.0418973,0,1,1,0.0
Status,,77,40,6,19,1575420030,0.00,319.0644,19.76342,0,1,1,0.0
Status,,77,41,6,36,1575420030,0.00,39.554585,10.749981,0,1,1,0.0
Status,,77,42,1,6,1176450050,18.40,67.12939,19.002077,0,1,1,13.5
Status,,77,43,1,11,1176450050,26.50,109.87427,16.118885,1,1,1,21.6
Status,,77,44,1,24,1176450050,31.50,131.2962,50.460316,1,1,1,26.6
Status,,77,45,1,25,1176450050,28.20,270.61676,51.076054,1,1,1,23.300001
Status,,77,46,1,32,1176450050,23.30,298.90353,36.047413,1,1,1,18.4
Status,,77,47,1,28,1176450050,0.00,304.8965,4.2468977,0,1,1,0.0
Status,,77,48,6,7,1176450050,22.90,188.84973,40.21364,1,1,1,17.599998
Status,,77,49,6,21,1176450050,25.10,250.34738,15.42757,1,1,1,19.8
Status,,77,50,6,27,1176450050,29.20,266.85406,67.62244,1,1,1,23.900002
Status,,77,51,6,29,1176450050,20.40,273.44736,54.50906,1,1,1,15.099999
Status,,77,52,6,30,1176450050,29.90,55.443436,55.52469,1,1,1,24.599998
Status,,77,53,6,34,1176450050,15.40,89.13873,14.52749,0,1,1,10.099999
Status,,77,54,6,36,1176450050,22.50,39.554585,10.749981,0,1,1,17.2
Status,,77,55,6,2,1176450050,0.00,65.02482,5.0418973,0,1,1,0.0
Status,,77,56,6,19,1176450050,0.00,319.0644,19.76342,0,1,1,0.0
Status,,77,57,5,21,1176450050,25.80,267.41748,28.319427,1,1,1,21.3
Status,,77,58,5,22,1176450050,30.80,215.68849,13.774812,1,1,1,26.3
Status,,77,59,5,26,1176450050,18.80,283.0182,8.338497,1,1,1,14.299999
Status,,77,60,5,27,1176450050,17.70,34.745094,10.068578,0,1,1,13.200001
Status,,77,61,5,29,1176450050,23.10,152.49452,33.502506,1,1,1,18.6
Status,,77,62,5,30,1176450050,20.90,85.143166,42.47979,1,1,1,16.4
Status,,77,63,5,36,1176450050,22.90,79.18439,58.61139,1,1,1,18.4
Status,,77,64,5,40,1176450050,14.70,34.608704,6.109246,0,1,1,10.2
Status,,77,65,5,42,1176450050,16.80,317.97278,15.903522,0,1,1,12.299999
Status,,77,66,5,45,1176450050,29.50,302.6061,63.24372,1,1,1,25.0
Status,,77,67,5,21,1575420030,24.70,267.41748,28.319427,1,1,1,17.7
Status,,77,68,5,22,1575420030,26.80,215.68849,13.774812,1,1,1,19.8
Status,,77,69,5,26,1575420030,28.10,283.0182,8.338497,1,1,1,21.1
Status,,77,70,5,27,1575420030,23.70,34.745094,10.068578,0,1,1,16.7
Status,,77,71,5,29,1575420030,29.00,152.49452,33.502506,1,1,1,22.0
Status,,77,72,5,30,1575420030,21.30,85.143166,42.47979,1,1,1,14.299999
Status,,77,73,5,36,1575420030,28.80,79.18439,58.61139,1,1,1,21.8
Status,,77,74,5,40,1575420030,19.20,34.608704,6.109246,0,1,1,12.200001
Status,,77,75,5,42,1575420030,17.90,317.97278,15.903522,0,1,1,10.9
Status,,77,76,5,45,1575420030,20.70,302.6061,63.24372,1,1,1,13.700001
Raw,1773902766412,1032466012000000,18,0.0,-1456905518400951412,0.2237553596496582,23.34492455702275,-1.2216660008572646,9.631350068064588,78,12,0.0,16399,369984345386987,24,29.1,90.18231201171875,1.253765344619751,16,0.0,0.0,1575420030,,,,0,,1,-49.07,25.5,0.0,0.0,,,C,1420545150731800,1,15169374.231039822,3393561.8361665774,21246519.84763331,-1304.8387832629396,2440.511551297328,534.6686728516713,-182244.27853971542,-0.0009297160722780973,0.000000021420419216156006,0.000000007450580596923828,-0.00000011920928955078125,0.0,122880.0,0.0,-262144.0,196608.0
Raw,1773902766412,1032466012000000,18,0.0,-1456905518400951412,0.2237553596496582,23.34492455702275,-1.2216660008572646,9.631350068064588,78,24,0.0,16399,369984341758648,53,23.5,503.3172302246094,0.9419999718666077,16,0.0,0.0,1575420030,,,,0,,1,-49.07,19.9,0.0,0.0,,,C,1420545150731800,1,,,,,,,,,0.000000021420419216156006,0.000000007450580596923828,-0.00000011920928955078125,0.0,122880.0,0.0,-262144.0,196608.0
Raw,1773902766412,1032466012000000,18,0.0,-1456905518400951412,0.2237553596496582,23.34492455702275,-1.2216660008572646,9.631350068064588,78,25,0.0,16399,369984343479768,24,29.1,-379.8201599121094,0.11500329524278641,16,0.0,0.0,1575420030,,,,0,,1,-49.07,25.5,0.0,0.0,,,C,1420545150731800,1,17528157.83298323,-10859471.571003765,16216431.957109855,-649.0764222558576,2058.46559797633,2056.4831524758574,130792.11215632992,-0.0020378838817123324,0.000000021420419216156006,0.000000007450580596923828,-0.00000011920928955078125,0.0,122880.0,0.0,-262144.0,196608.0
Raw,1773902766412,1032466012000000,18,0.0,-1456905518400951412,0.2237553596496582,23.34492455702275,-1.2216660008572646,9.631350068064588,78,29,0.0,16399,369984332812359,14,34.1,-710.4100952148438,0.01999565400183201,16,0.0,0.0,1575420030,,,,0,,1,-49.07,30.5,0.0,0.0,,,C,1420545150731800,1,25819674.00754653,-3955879.603518622,-5289590.390405244,665.9303611646724,252.2429572118109,3071.9695321535833,-106838.0423162145,0.002416261122561991,0.000000021420419216156006,0.000000007450580596923828,-0.00000011920928955078125,0.0,122880.0,0.0,-262144.0,196608.0
Raw,1773902766412,1032466012000000,18,0.0,-1456905518400951412,0.2237553596496582,23.34492455702275,-1.2216660008572646,9.631350068064588,78,32,0.0,16399,369984337942350,122,17.1,-256.9345397949219,4.441999912261963,16,0.0,0.0,1575420030,,,,0,,1,-49.07,13.500000000000002,0.0,0.0,,,C,1420545150731800,1,9786977.201270796,-14760235.342379587,20012980.57440108,2484.0704127799117,-119.85215889537696,-1339.5182240473312,-12445.494382638763,0.0062349081817956176,0.000000021420419216156006,0.000000007450580596923828,-0.00000011920928955078125,0.0,122880.0,0.0,-262144.0,196608.0
Raw,1773902766412,1032466012000000,18,0.0,-1456905518400951412,0.2237553596496582,23.34492455702275,-1.2216660008572646,9.631350068064588,78,6,0.0,49359,35166338282974,27,28.5,767.8884887695312,0.6015000343322754,16,0.0,0.0,1599750020,,,,0,,3,-46.46,24.5,4866.41552734375,10.642233848571777,,,C,1420545150731800,1,,,,,,,,,0.000000021420419216156006,0.000000007450580596923828,-0.00000011920928955078125,0.0,122880.0,0.0,-262144.0,196608.0
Raw,1773902766412,1032466012000000,18,0.0,-1456905518400951412,0.2237553596496582,23.34492455702275,-1.2216660008572646,9.631350068064588,78,15,0.0,49359,35166334970349,181,14.8,578.3917236328125,10.077500343322754,16,0.0,0.0,1602000000,,,,0,,3,-46.46,10.8,4866.41552734375,10.642233848571777,,,C,1420545150731800,1,,,,,,,,,0.000000021420419216156006,0.000000007450580596923828,-0.00000011920928955078125,0.0,122880.0,0.0,-262144.0,196608.0
Raw,1773902766412,1032466012000000,18,0.0,-1456905518400951412,0.2237553596496582,23.34492455702275,-1.2216660008572646,9.631350068064588,78,45,0.0,16399,369970338620440,27,29.2,-222.46815490722656,0.5615000128746033,16,0.0,0.0,1561097980,,,,0,,5,-54.08,24.9,-479.8915100097656,8.807366371154785,,,I,1420545150731800,1,15635418.224404536,-6249202.190335008,22241948.70022851,150.54353655658795,2541.2733618969623,610.1235874377004,-225288.29132712167,-0.006040937441866845,0.000000021420419216156006,0.000000007450580596923828,-0.00000011920928955078125,0.0,122880.0,0.0,-262144.0,196608.0
Raw,1773902766412,1032466012000000,18,0.0,-1456905518400951412,0.2237553596496582,23.34492455702275,-1.2216660008572646,9.631350068064588,78,36,0.0,16399,369970338863097,92,19.4,251.17807006835938,2.7385001182556152,16,0.0,0.0,1561097980,,,,0,,5,-54.08,15.099999999999998,-479.8915100097656,8.807366371154785,,,I,1420545150731800,1,14752408.009590046,13570693.520777257,19438320.433254834,28.22793933206205,2221.3871383338133,-1572.1233357551107,88463.76995594465,-0.0007173987542046234,0.000000021420419216156006,0.000000007450580596923828,-0.00000011920928955078125,0.0,122880.0,0.0,-262144.0,196608.0
Raw,1773902766412,1032466012000000,18,0.0,-1456905518400951412,0.2237553596496582,23.34492455702275,-1.2216660008572646,9.631350068064588,78,30,0.0,16399,369970336011039,61,22.6,-40.587547302246094,1.7254999876022339,16,0.0,0.0,1561097980,,,,0,,5,-54.08,18.3,-479.8915100097656,8.807366371154785,,,I,1420545150731800,1,12088797.559436882,18801517.354156785,16676674.178375814,-1784.7228988572133,-693.4441544064236,2075.5798828264956,122778.85073214676,0.0023416830372298136,0.000000021420419216156006,0.000000007450580596923828,-0.00000011920928955078125,0.0,122880.0,0.0,-262144.0,196608.0
Raw,1773902766412,1032466012000000,18,0.0,-1456905518400951412,0.2237553596496582,23.34492455702275,-1.2216660008572646,9.631350068064588,78,29,0.0,16399,369970333990574,92,19.4,-538.6227416992188,2.7309999465942383,16,0.0,0.0,1561097980,,,,0,,5,-54.08,15.099999999999998,-479.8915100097656,8.807366371154785,,,I,1420545150731800,1,24847078.51644234,12614808.21266497,1459128.0052633453,-224.76765648366194,86.25211147771341,3061.6183415109476,173410.40353355627,0.0015646801912225783,0.000000021420419216156006,0.000000007450580596923828,-0.00000011920928955078125,0.0,122880.0,0.0,-262144.0,196608.0
Raw,1773902766412,1032466012000000,18,0.0,-1456905518400951412,0.2237553596496582,23.34492455702275,-1.2216660008572646,9.631350068064588,78,26,0.0,16399,369970324875695,70,22.0,-527.0812377929688,1.0175000429153442,16,0.0,0.0,1561097980,,,,0,,5,-54.08,17.7,-479.8915100097656,8.807366371154785,,,I,1420545150731800,1,6412565.368890252,-24614709.00004523,11416374.945515921,251.24576517359537,1295.2448015989662,2648.721209202315,-183601.45010046483,-0.0017735679575707763,0.000000021420419216156006,0.000000007450580596923828,-0.00000011920928955078125,0.0,122880.0,0.0,-262144.0,196608.0
Raw,1773902766412,1032466012000000,18,0.0,-1456905518400951412,0.2237553596496582,23.34492455702275,-1.2216660008572646,9.631350068064588,78,22,0.0,16399,369970327589353,21,31.2,614.5145874023438,1.2297325134277344,16,0.0,0.0,1561097980,,,,0,,5,-54.08,26.9,-479.8915100097656,8.807366371154785,,,I,1420545150731800,1,24898713.05549376,-11332489.16686156,-5616299.705034751,-517.6964519947878,378.6822157341893,-3058.219931899752,133503.4387841214,0.0007212861091829836,0.000000021420419216156006,0.000000007450580596923828,-0.00000011920928955078125,0.0,122880.0,0.0,-262144.0,196608.0
Raw,1773902766412,1032466012000000,18,0.0,-1456905518400951412,0.2237553596496582,23.34492455702275,-1.2216660008572646,9.631350068064588,78,21,0.0,16399,369970330852239,35,27.1,302.951904296875,0.6784999966621399,16,0.0,0.0,1561097980,,,,0,,5,-54.08,22.8,-479.8915100097656,8.807366371154785,,,I,1420545150731800,1,16129791.757290136,-19464169.332199413,11879730.65132224,1164.374390506706,-689.8172727691342,-2710.395070991903,-260111.35710239658,0.0011078677780460566,0.000000021420419216156006,0.000000007450580596923828,-0.00000011920928955078125,0.0,122880.0,0.0,-262144.0,196608.0
Raw,1773902766412,1032466012000000,18,0.0,-1456905518400951412,0.2237553596496582,23.34492455702275,-1.2216660008572646,9.631350068064588,78,7,0.0,17423,369984329165270,31,27.9,492.7366943359375,0.04020638018846512,16,0.0,0.0,1575420030,,,,0,,6,-52.83,23.599999999999998,3.8944966793060303,9.171698570251465,,,C,1420545150731800,1,29492104.48333791,984164.7670237436,2468186.1526164454,252.60232892885386,-54.04567151699801,-3004.7048489814974,-15475.953735144498,-0.000682026971844607,0.000000021420419216156006,0.000000007450580596923828,-0.00000011920928955078125,0.0,122880.0,0.0,-262144.0,196608.0
Raw,1773902766412,1032466012000000,18,0.0,-1456905518400951412,0.2237553596496582,23.34492455702275,-1.2216660008572646,9.631350068064588,78,15,0.0,17423,369984317029422,80,21.2,-547.3892822265625,1.806999921798706,16,0.0,0.0,1575420030,,,,0,,6,-52.83,16.9,3.8944966793060303,9.171698570251465,,,C,1420545150731800,1,16664829.771134526,22636721.248064153,-9239598.987903459,524.2269917320519,783.8758631887627,2865.579268582914,-73133.2423788373,-0.0009121429757215083,0.000000021420419216156006,0.000000007450580596923828,-0.00000011920928955078125,0.0,122880.0,0.0,-262144.0,196608.0
Raw,1773902766412,1032466012000000,18,0.0,-1456905518400951412,0.2237553596496582,23.34492455702275,-1.2216660008572646,9.631350068064588,78,21,0.0,17423,369984321365928,46,24.7,-456.3665466308594,0.8357273936271667,16,0.0,0.0,1575420030,,,,0,,6,-52.83,20.4,3.8944966793060303,9.171698570251465,,,C,1420545150731800,1,19032442.384133436,-22398186.01678818,3492168.5107459608,-251.94643168109968,251.17767570278835,2978.793153381569,-218575.00011484977,-0.0007793422264512628,0.000000021420419216156006,0.000000007450580596923828,-0.00000011920928955078125,0.0,122880.0,0.0,-262144.0,196608.0
Raw,1773902766412,1032466012000000,18,0.0,-1456905518400951412,0.2237553596496582,23.34492455702275,-1.2216660008572646,9.631350068064588,78,29,0.0,17423,369984332089608,61,22.6,-6.232117652893066,1.005500078201294,16,0.0,0.0,1575420030,,,,0,,6,-52.83,18.3,3.8944966793060303,9.171698570251465,,,C,1420545150731800,1,19607046.27579424,-11512854.86200302,18953979.000427563,1895.6996450498536,138.81389850485758,-1876.9903166372555,-56557.742174422645,-0.0010742743106675334,0.000000021420419216156006,0.000000007450580596923828,-0.00000011920928955078125,0.0,122880.0,0.0,-262144.0,196608.0
Raw,1773902766412,1032466012000000,18,0.0,-1456905518400951412,0.2237553596496582,23.34492455702275,-1.2216660008572646,9.631350068064588,78,30,0.0,17423,369984331600608,122,17.4,284.7554626464844,2.9840002059936523,16,0.0,0.0,1575420030,,,,0,,6,-52.83,13.099999999999998,3.8944966793060303,9.171698570251465,,,C,1420545150731800,1,11415840.46768632,12960847.86959323,24023118.081988204,-1402.1361631854302,1962.9293854526622,-391.5803669275069,-254394.62912670418,-0.012121062085498124,0.000000021420419216156006,0.000000007450580596923828,-0.00000011920928955078125,0.0,122880.0,0.0,-262144.0,196608.0
Raw,1773902766412,1032466012000000,18,0.0,-1456905518400951412,0.2237553596496582,23.34492455702275,-1.2216660008572646,9.631350068064588,78,6,0.0,81935,369984333028740,23,18.4,-126.10165405273438,3.5810000896453857,16,0.0,0.0,1176450050,,,,0,,1,-40.07,13.499999999999998,-9.214305877685547,6.073070526123047,,,Q,1420545150731800,1,961530.1142143197,20977739.47803074,16228920.935722988,-1245.4679968219439,-1633.9870053397635,2209.702876080661,-183681.526493997,-0.00004155648639425635,0.000000021420419216156006,0.000000007450580596923828,-0.00000011920928955078125,0.0,122880.0,0.0,-262144.0,196608.0
Raw,1773902766412,1032466012000000,18,0.0,-1456905518400951412,0.2237553596496582,23.34492455702275,-1.2216660008572646,9.631350068064588,78,11,0.0,81935,369984332158802,9,26.5,-483.3808898925781,0.048372019082307816,16,0.0,0.0,1176450050,,,,0,,1,-40.07,21.6,-9.214305877685547,6.073070526123047,,,Q,1420545150731800,1,11769285.123940907,23559514.170821454,3783179.965504995,-473.9522908173004,-259.87151496484523,3129.4788048674895,-120655.67331782555,0.004026085342047736,0.000000021420419216156006,0.000000007450580596923828,-0.00000011920928955078125,0.0,122880.0,0.0,-262144.0,196608.0
Raw,1773902766412,1032466012000000,18,0.0,-1456905518400951412,0.2237553596496582,23.34492455702275,-1.2216660008572646,9.631350068064588,78,24,0.0,81935,369984341758704,6,31.5,502.6440124511719,0.05858473479747772,16,0.0,0.0,1176450050,,,,0,,1,-40.07,26.6,-9.214305877685547,6.073070526123047,,,Q,1420545150731800,1,,,,,,,,,0.000000021420419216156006,0.000000007450580596923828,-0.00000011920928955078125,0.0,122880.0,0.0,-262144.0,196608.0
Raw,1773902766412,1032466012000000,18,0.0,-1456905518400951412,0.2237553596496582,23.34492455702275,-1.2216660008572646,9.631350068064588,78,25,0.0,81935,369984343479736,8,28.2,-379.7440490722656,0.05368506535887718,16,0.0,0.0,1176450050,,,,0,,1,-40.07,23.299999999999997,-9.214305877685547,6.073070526123047,,,Q,1420545150731800,1,17528157.833004,-10859471.571069632,16216431.957044045,-649.0764222560633,2058.465597967476,2056.4831524873175,130792.11215632998,-0.0020378838817123324,0.000000021420419216156006,0.000000007450580596923828,-0.00000011920928955078125,0.0,122880.0,0.0,-262144.0,196608.0
Raw,1773902766412,1032466012000000,18,0.0,-1456905518400951412,0.2237553596496582,23.34492455702275,-1.2216660008572646,9.631350068064588,78,32,0.0,81935,369984337942371,12,23.3,-256.1658935546875,0.9569999575614929,16,0.0,0.0,1176450050,,,,0,,1,-40.07,18.4,-9.214305877685547,6.073070526123047,,,Q,1420545150731800,1,9786977.20132298,-14760235.342382103,20012980.574372947,2484.0704127763456,-119.85215889815974,-1339.5182240561103,-12445.494382638632,0.006234908179976628,0.000000021420419216156006,0.000000007450580596923828,-0.00000011920928955078125,0.0,122880.0,0.0,-262144.0,196608.0
Raw,1773902766412,1032466012000000,18,0.0,-1456905518400951412,0.2237553596496582,23.34492455702275,-1.2216660008572646,9.631350068064588,78,7,0.0,81935,369984329165221,14,22.9,492.5188903808594,1.7750000953674316,16,0.0,0.0,1176450050,,,,0,,6,-40.07,17.599999999999998,-9.367332458496094,51.723480224609375,,,Q,1420545150731800,1,29492104.4833264,984164.7670262686,2468186.152753215,252.60232894268466,-54.045671514870214,-3004.704848979772,-15476.996722453507,-0.0006820269736635964,0.000000021420419216156006,0.000000007450580596923828,-0.00000011920928955078125,0.0,122880.0,0.0,-262144.0,196608.0
Raw,1773902766412,1032466012000000,18,0.0,-1456905518400951412,0.2237553596496582,23.34492455702275,-1.2216660008572646,9.631350068064588,78,21,0.0,81935,369984321365896,11,25.1,-456.42791748046875,0.9008356332778931,16,0.0,0.0,1176450050,,,,0,,6,-40.07,19.8,-9.367332458496094,51.723480224609375,,,Q,1420545150731800,1,19032442.3841413,-22398186.01679606,3492168.510652755,-251.94643167625816,251.17767569459252,2978.7931533832484,-218575.21253776876,-0.0007793422264512628,0.000000021420419216156006,0.000000007450580596923828,-0.00000011920928955078125,0.0,122880.0,0.0,-262144.0,196608.0
Raw,1773902766412,1032466012000000,18,0.0,-1456905518400951412,0.2237553596496582,23.34492455702275,-1.2216660008572646,9.631350068064588,78,27,0.0,81935,369984333293743,8,29.2,-153.74034118652344,0.038685064762830734,16,0.0,0.0,1176450050,,,,0,,6,-40.07,23.9,-9.367332458496094,51.723480224609375,,,Q,1420545150731800,1,21253914.369229272,-6134013.299933404,19657755.786280464,-1176.152753693742,1584.0532486358888,1766.117449851105,-280984.5716309042,-0.0031518685864284635,0.000000021420419216156006,0.000000007450580596923828,-0.00000011920928955078125,0.0,122880.0,0.0,-262144.0,196608.0
Raw,1773902766412,1032466012000000,18,0.0,-1456905518400951412,0.2237553596496582,23.34492455702275,-1.2216660008572646,9.631350068064588,78,30,0.0,81935,369984331600640,7,29.9,284.67083740234375,0.03359547629952431,16,0.0,0.0,1176450050,,,,0,,6,-40.07,24.599999999999998,-9.367332458496094,51.723480224609375,,,Q,1420545150731800,1,11415840.467639877,12960847.869658243,24023118.08197523,-1402.136163179755,1962.9293854551133,-391.58036693975254,-254394.96672145385,-0.012121062085498124,0.000000021420419216156006,0.000000007450580596923828,-0.00000011920928955078125,0.0,122880.0,0.0,-262144.0,196608.0
Raw,1773902766412,1032466012000000,18,0.0,-1456905518400951412,0.2237553596496582,23.34492455702275,-1.2216660008572646,9.631350068064588,78,21,0.0,16399,369970330852234,9,25.8,303.010986328125,0.07537201792001724,16,0.0,0.0,1176450050,,,,0,,5,-40.07,21.3,-463.2818603515625,56.280609130859375,,,P,1420545150731800,1,16129791.75728434,-19464169.332195938,11879730.651335787,1164.3743905082567,-689.8172727695458,-2710.395070990817,-260111.35710239658,0.0011078677780460566,0.000000021420419216156006,0.000000007450580596923828,-0.00000011920928955078125,0.0,122880.0,0.0,-262144.0,196608.0
Raw,1773902766412,1032466012000000,18,0.0,-1456905518400951412,0.2237553596496582,23.34492455702275,-1.2216660008572646,9.631350068064588,78,22,0.0,16399,369970327589345,6,30.8,614.5352172851562,0.06758473813533783,16,0.0,0.0,1176450050,,,,0,,5,-40.07,26.3,-463.2818603515625,56.280609130859375,,,P,1420545150731800,1,24898713.055497892,-11332489.16686461,-5616299.705010287,-517.6964519926429,378.68221573240896,-3058.2199319005745,133503.43878412136,0.0007212861091829836,0.000000021420419216156006,0.000000007450580596923828,-0.00000011920928955078125,0.0,122880.0,0.0,-262144.0,196608.0
Raw,1773902766412,1032466012000000,18,0.0,-1456905518400951412,0.2237553596496582,23.34492455702275,-1.2216660008572646,9.631350068064588,78,29,0.0,16399,369970333990619,12,23.1,-538.107666015625,0.9509999752044678,16,0.0,0.0,1176450050,,,,0,,5,-40.07,18.6,-463.2818603515625,56.280609130859375,,,P,1420545150731800,1,24847078.51643224,12614808.212668827,1459128.0054011166,-224.76765649766466,86.25211147179336,3061.618341509745,173410.40353355635,0.0015646802203264087,0.000000021420419216156006,0.000000007450580596923828,-0.00000011920928955078125,0.0,122880.0,0.0,-262144.0,196608.0
Raw,1773902766412,1032466012000000,18,0.0,-1456905518400951412,0.2237553596496582,23.34492455702275,-1.2216660008572646,9.631350068064588,78,36,0.0,16399,369970338863190,12,22.9,250.8909454345703,1.0385000705718994,16,0.0,0.0,1176450050,,,,0,,5,-40.07,18.4,-463.2818603515625,56.280609130859375,,,P,1420545150731800,1,14752408.009592714,13570693.520983798,19438320.433108624,28.227939344376004,2221.3871383170344,-1572.1233357882131,88463.76995594459,-0.0007173987687565386,0.000000021420419216156006,0.000000007450580596923828,-0.00000011920928955078125,0.0,122880.0,0.0,-262144.0,196608.0
Raw,1773902766412,1032466012000000,18,0.0,-1456905518400951412,0.2237553596496582,23.34492455702275,-1.2216660008572646,9.631350068064588,78,45,0.0,16399,369970338620516,6,29.5,-222.3787078857422,0.0724136158823967,16,0.0,0.0,1176450050,,,,0,,5,-40.07,25.0,-463.2818603515625,56.280609130859375,,,P,1420545150731800,1,15635418.224415977,-6249202.190141875,22241948.700274877,150.54353656926008,2541.273361901488,610.1235874066656,-225288.29132712213,-0.006040937470970675,0.000000021420419216156006,0.000000007450580596923828,-0.00000011920928955078125,0.0,122880.0,0.0,-262144.0,196608.0
Raw,1773902766412,1032466012000000,18,0.0,-1456905518400951412,0.2237553596496582,23.34492455702275,-1.2216660008572646,9.631350068064588,78,22,0.0,16399,369970327589292,11,26.8,614.4971923828125,1.2983427047729492,16,0.0,0.0,1575420030,,,,0,,5,-52.83,19.8,-458.90203857421875,54.97371292114258,,,P,1420545150731800,1,24898713.05552533,-11332489.166884666,-5616299.704848208,-517.6964519784356,378.68221572061003,-3058.2199319060237,133503.43878412133,0.0007212861091829836,0.000000021420419216156006,0.000000007450580596923828,-0.00000011920928955078125,0.0,122880.0,0.0,-262144.0,196608.0
Raw,1773902766412,1032466012000000,18,0.0,-1456905518400951412,0.2237553596496582,23.34492455702275,-1.2216660008572646,9.631350068064588,78,29,0.0,16399,369970333990562,8,29.0,-538.2577514648438,0.06605222821235657,16,0.0,0.0,1575420030,,,,0,,5,-52.83,22.0,-458.90203857421875,54.97371292114258,,,P,1420545150731800,1,24847078.516445056,12614808.212663906,1459128.005226604,-224.76765647992772,86.25211147929318,3061.61834151127,173410.40353355624,0.0015646801912225783,0.000000021420419216156006,0.000000007450580596923828,-0.00000011920928955078125,0.0,122880.0,0.0,-262144.0,196608.0
Raw,1773902766412,1032466012000000,18,0.0,-1456905518400951412,0.2237553596496582,23.34492455702275,-1.2216660008572646,9.631350068064588,78,30,0.0,16399,369970336011031,20,21.3,-40.20905303955078,2.8955001831054688,16,0.0,0.0,1575420030,,,,0,,5,-52.83,14.3,-458.90203857421875,54.97371292114258,,,P,1420545150731800,1,12088797.559451178,18801517.354162324,16676674.178359207,-1784.7228988551433,-693.4441544065397,2075.579882828949,122778.85073214675,0.0023416830372298136,0.000000021420419216156006,0.000000007450580596923828,-0.00000011920928955078125,0.0,122880.0,0.0,-262144.0,196608.0
Raw,1773902766412,1032466012000000,18,0.0,-1456905518400951412,0.2237553596496582,23.34492455702275,-1.2216660008572646,9.631350068064588,78,45,0.0,16399,369970338620450,23,20.7,-222.26300048828125,2.8984999656677246,16,0.0,0.0,1575420030,,,,0,,5,-52.83,13.7,-458.90203857421875,54.97371292114258,,,P,1420545150731800,1,15635418.224406045,-6249202.19030959,22241948.700234607,150.54353655825304,2541.273361897557,610.1235874336178,-225288.29132712173,-0.006040937470970675,0.000000021420419216156006,0.000000007450580596923828,-0.00000011920928955078125,0.0,122880.0,0.0,-262144.0,196608.0
Agc,1773902766412,1032466012000000,18,0.0,-1456905518400951412,0.2237553596496582,23.34492455702275,-1.2216660008572646,9.631350068064588,78,-49.07,1575420000,1
Agc,1773902766412,1032466012000000,18,0.0,-1456905518400951412,0.2237553596496582,23.34492455702275,-1.2216660008572646,9.631350068064588,78,-46.46,1602000000,3
Agc,1773902766412,1032466012000000,18,0.0,-1456905518400951412,0.2237553596496582,23.34492455702275,-1.2216660008572646,9.631350068064588,78,-54.08,1561098000,5
Agc,1773902766412,1032466012000000,18,0.0,-1456905518400951412,0.2237553596496582,23.34492455702275,-1.2216660008572646,9.631350068064588,78,-52.83,1575420000,6
Agc,1773902766412,1032466012000000,18,0.0,-1456905518400951412,0.2237553596496582,23.34492455702275,-1.2216660008572646,9.631350068064588,78,-40.07,1176450000,1
Agc,1773902766412,1032466012000000,18,0.0,-1456905518400951412,0.2237553596496582,23.34492455702275,-1.2216660008572646,9.631350068064588,78,-40.07,1176450000,4
Agc,1773902766412,1032466012000000,18,0.0,-1456905518400951412,0.2237553596496582,23.34492455702275,-1.2216660008572646,9.631350068064588,78,-40.07,1176450000,6
Agc,1773902766412,1032466012000000,18,0.0,-1456905518400951412,0.2237553596496582,23.34492455702275,-1.2216660008572646,9.631350068064588,78,-40.07,1176450000,5
Agc,1773902766412,1032466012000000,18,0.0,-1456905518400951412,0.2237553596496582,23.34492455702275,-1.2216660008572646,9.631350068064588,78,-52.83,1575420000,5
Fix,GPS,45.0496084800,7.6493148800,309.57757568359375,0.0,3.7900925,,1773902767000,0.07069857,,1420545737734768,2.5,0,,,
Fix,FLP,45.0496093000,7.6493170000,301.0,0.08193897,3.0,,1773902766952,0.10190629,,1420545737734768,1.0613374,0,,,
Status,1773902767000,77,0,1,6,1575420030,18.90,67.12939,19.002077,0,1,1,15.299999
Status,1773902767000,77,1,1,11,1575420030,16.90,109.87427,16.118885,1,1,1,13.299999
Status,1773902767000,77,2,1,12,1575420030,27.20,17.182713,77.86156,1,1,1,23.6
Status,1773902767000,77,3,1,19,1575420030,22.70,43.122433,18.560297,1,1,1,19.1
Status,1773902767000,77,4,1,24,1575420030,21.70,131.2962,50.460316,1,1,1,18.1
Status,1773902767000,77,5,1,25,1575420030,31.40,270.61676,51.076054,1,1,1,27.8
Status,1773902767000,77,6,1,29,1575420030,31.10,198.89241,18.241838,1,1,1,27.5
Status,1773902767000,77,7,1,32,1575420030,21.90,298.90353,36.047413,1,1,1,18.3
Status,1773902767000,77,8,1,28,1575420030,0.00,304.8965,4.2468977,0,1,1,0.0
Status,1773902767000,77,9,3,6,1599750020,27.70,216.3177,22.461636,1,1,1,23.7
Status,1773902767000,77,10,3,18,1600312450,18.40,98.9035,39.418655,0,1,1,14.4
Status,1773902767000,77,11,3,9,1600875010,19.70,299.66592,43.388744,0,1,1,15.700001
Status,1773902767000,77,12,3,16,1601437440,20.10,40.311573,57.01262,1,1,1,16.1
Status,1773902767000,77,13,3,15,1602000000,14.80,80.10686,12.435779,1,1,1,10.8
Status,1773902767000,77,14,3,19,1603687550,28.30,151.24452,13.903888,1,1,1,24.3
Status,1773902767000,77,15,3,7,1604812540,18.90,286.05414,40.056625,0,1,1,14.9
Status,1773902767000,77,16,3,8,1605374980,17.10,337.03223,14.131338,0,1,1,13.1
Status,1773902767000,77,17,5,45,1561097980,27.00,302.6061,63.24372,1,1,1,22.7
Status,1773902767000,77,18,5,42,1561097980,14.80,317.97278,15.903522,1,1,1,10.5
Status,1773902767000,77,19,5,36,1561097980,23.20,79.18439,58.61139,1,1,1,18.900002
Status,1773902767000,77,20,5,30,1561097980,22.60,85.143166,42.47979,1,1,1,18.3
Status,1773902767000,77,21,5,29,1561097980,30.10,152.49452,33.502506,1,1,1,25.8
Status,1773902767000,77,22,5,27,1561097980,18.10,34.745094,10.068578,0,1,1,13.8
Status,1773902767000,77,23,5,26,1561097980,22.70,283.0182,8.338497,1,1,1,18.400002
Status,1773902767000,77,24,5,22,1561097980,21.80,215.68849,13.774812,1,1,1,17.5
Status,1773902767000,77,25,5,21,1561097980,25.50,267.41748,28.319427,1,1,1,21.2
Status,1773902767000,77,26,5,10,1561097980,15.00,52.535454,22.733608,0,1,1,10.7
Status,1773902767000,77,27,5,5,1561097980,0.00,121.95501,15.323538,0,1,1,0.0
Status,1773902767000,77,28,5,7,1561097980,0.00,47.501938,11.517485,0,1,1,0.0
Status,1773902767000,77,29,5,14,1561097980,0.00,339.8065,2.0646675,0,1,1,0.0
Status,1773902767000,77,30,5,40,1561097980,0.00,34.608704,6.109246,0,1,1,0.0
Status,1773902767000,77,31,5,60,1561097980,0.00,103.99749,2.197759,0,1,1,0.0
Status,1773902767000,77,32,6,7,1575420030,25.60,188.84973,40.21364,1,1,1,21.3
Status,1773902767000,77,33,6,15,1575420030,22.20,135.27818,1.5930611,0,1,1,17.900002
Status,1773902767000,77,34,6,21,1575420030,31.20,250.34738,15.42757,1,1,1,26.900002
Status,1773902767000,77,35,6,27,1575420030,15.70,266.85406,67.62244,1,1,1,11.4
Status,1773902767000,77,36,6,29,1575420030,22.40,273.44736,54.50906,1,1,1,18.099998
Status,1773902767000,77,37,6,30,1575420030,20.10,55.443436,55.52469,1,1,1,15.8
Status,1773902767000,77,38,6,34,1575420030,20.30,89.13873,14.52749,0,1,1,15.999999
Status,1773902767000,77,39,6,2,1575420030,0.00,65.02482,5.0418973,0,1,1,0.0
Status,1773902767000,77,40,6,19,1575420030,0.00,319.0644,19.76342,0,1,1,0.0
Status,1773902767000,77,41,6,36,1575420030,0.00,39.554585,10.749981,0,1,1,0.0
Status,1773902767000,77,42,1,6,1176450050,18.40,67.12939,19.002077,0,1,1,13.5
Status,1773902767000,77,43,1,11,1176450050,26.10,109.87427,16.118885,1,1,1,21.2
Status,1773902767000,77,44,1,24,1176450050,33.80,131.2962,50.460316,1,1,1,28.9
Status,1773902767000,77,45,1,25,1176450050,25.80,270.61676,51.076054,1,1,1,20.9
Status,1773902767000,77,46,1,32,1176450050,22.70,298.90353,36.047413,0,1,1,17.800001
Status,1773902767000,77,47,1,28,1176450050,0.00,304.8965,4.2468977,0,1,1,0.0
Status,1773902767000,77,48,6,7,1176450050,28.60,188.84973,40.21364,1,1,1,23.3
Status,1773902767000,77,49,6,21,1176450050,34.90,250.34738,15.42757,1,1,1,29.600002
Status,1773902767000,77,50,6,27,1176450050,34.90,266.85406,67.62244,1,1,1,29.600002
Status,1773902767000,77,51,6,29,1176450050,22.70,273.44736,54.50906,1,1,1,17.400002
Status,1773902767000,77,52,6,30,1176450050,32.50,55.443436,55.52469,1,1,1,27.2
Status,1773902767000,77,53,6,34,1176450050,20.40,89.13873,14.52749,0,1,1,15.099999
Status,1773902767000,77,54,6,36,1176450050,22.50,39.554585,10.749981,0,1,1,17.2
Status,1773902767000,77,55,6,2,1176450050,0.00,65.02482,5.0418973,0,1,1,0.0
Status,1773902767000,77,56,6,19,1176450050,0.00,319.0644,19.76342,0,1,1,0.0
Status,1773902767000,77,57,5,21,1176450050,25.80,267.41748,28.319427,1,1,1,21.3
Status,1773902767000,77,58,5,22,1176450050,36.40,215.68849,13.774812,1,1,1,31.900002
Status,1773902767000,77,59,5,26,1176450050,18.80,283.0182,8.338497,1,1,1,14.299999
Status,1773902767000,77,60,5,27,1176450050,17.70,34.745094,10.068578,0,1,1,13.200001
Status,1773902767000,77,61,5,29,1176450050,28.50,152.49452,33.502506,1,1,1,24.0
Status,1773902767000,77,62,5,30,1176450050,17.30,85.143166,42.47979,1,1,1,12.799999
Status,1773902767000,77,63,5,36,1176450050,21.90,79.18439,58.61139,1,1,1,17.4
Status,1773902767000,77,64,5,40,1176450050,18.90,34.608704,6.109246,0,1,1,14.4
Status,1773902767000,77,65,5,42,1176450050,16.80,317.97278,15.903522,0,1,1,12.299999
Status,1773902767000,77,66,5,45,1176450050,26.30,302.6061,63.24372,1,1,1,21.8
Status,1773902767000,77,67,5,21,1575420030,19.90,267.41748,28.319427,1,1,1,12.9
Status,1773902767000,77,68,5,22,1575420030,27.70,215.68849,13.774812,1,1,1,20.7
Status,1773902767000,77,69,5,26,1575420030,28.10,283.0182,8.338497,1,1,1,21.1
Status,1773902767000,77,70,5,27,1575420030,23.70,34.745094,10.068578,0,1,1,16.7
Status,1773902767000,77,71,5,29,1575420030,32.50,152.49452,33.502506,1,1,1,25.5
Status,1773902767000,77,72,5,30,1575420030,21.30,85.143166,42.47979,1,1,1,14.299999
Status,1773902767000,77,73,5,36,1575420030,19.90,79.18439,58.61139,1,1,1,12.9
Status,1773902767000,77,74,5,40,1575420030,19.20,34.608704,6.109246,0,1,1,12.200001
Status,1773902767000,77,75,5,42,1575420030,17.90,317.97278,15.903522,0,1,1,10.9
Status,1773902767000,77,76,5,45,1575420030,20.70,302.6061,63.24372,1,1,1,13.700001
Raw,1773902767412,1032467012000000,18,0.0,-1456905518400951414,0.715012788772583,23.19165832886938,-1.3080141892580923,9.7570963670366,78,12,0.0,16399,369985345386688,31,27.2,90.03744506835938,0.6859999895095825,16,0.0,0.0,1575420030,,,,0,,1,-48.89,23.599999999999998,0.0,0.0,,,C,1420546147983049,1,15168069.445279071,3396002.4140904425,21247054.284058135,-1304.7335116588524,2440.6457465530298,534.2044943853502,-182244.27946944215,-0.0009297380165662616,0.000000021420419216156006,0.000000007450580596923828,-0.00000011920928955078125,0.0,122880.0,0.0,-262144.0,196608.0
Raw,1773902767412,1032467012000000,18,0.0,-1456905518400951414,0.715012788772583,23.19165832886938,-1.3080141892580923,9.7570963670366,78,19,0.0,16399,369985334357749,53,22.7,562.6793823242188,1.7225000858306885,16,0.0,0.0,1575420030,,,,0,,1,-48.89,19.099999999999998,0.0,0.0,,,C,1420546147983049,1,-3913622.430606955,15011329.507250141,21432464.784022905,-2744.8109712717696,-112.18419787367392,-473.0354533656652,208128.3037936739,0.000019871979020535946,0.000000021420419216156006,0.000000007450580596923828,-0.00000011920928955078125,0.0,122880.0,0.0,-262144.0,196608.0
Raw,1773902767412,1032467012000000,18,0.0,-1456905518400951414,0.715012788772583,23.19165832886938,-1.3080141892580923,9.7570963670366,78,24,0.0,16399,369985341757013,61,21.7,503.9547424316406,1.1019999980926514,16,0.0,0.0,1575420030,,,,0,,1,-48.89,18.099999999999998,0.0,0.0,,,C,1420546147983049,1,,,,,,,,,0.000000021420419216156006,0.000000007450580596923828,-0.00000011920928955078125,0.0,122880.0,0.0,-262144.0,196608.0
Raw,1773902767412,1032467012000000,18,0.0,-1456905518400951414,0.715012788772583,23.19165832886938,-1.3080141892580923,9.7570963670366,78,25,0.0,16399,369985343481014,19,31.4,-380.0116882324219,0.06470867991447449,16,0.0,0.0,1575420030,,,,0,,1,-48.89,27.799999999999997,0.0,0.0,,,C,1420546147983049,1,17527508.75896252,-10857412.964502953,16218488.263756406,-649.069993191237,2058.742267807201,2056.1250086227697,130792.11011841545,-0.0020379399502417073,0.000000021420419216156006,0.000000007450580596923828,-0.00000011920928955078125,0.0,122880.0,0.0,-262144.0,196608.0
Raw,1773902767412,1032467012000000,18,0.0,-1456905518400951414,0.715012788772583,23.19165832886938,-1.3080141892580923,9.7570963670366,78,29,0.0,16399,369985332814755,19,31.1,-710.7250366210938,1.7638517618179321,16,0.0,0.0,1575420030,,,,0,,1,-48.89,27.5,0.0,0.0,,,C,1420546147983049,1,25820339.754681766,-3955627.3773748204,-5286518.357817882,665.56071645689,252.2081300224315,3072.0809107072027,-106838.03989995141,0.0024162534828064963,0.000000021420419216156006,0.000000007450580596923828,-0.00000011920928955078125,0.0,122880.0,0.0,-262144.0,196608.0
Raw,1773902767412,1032467012000000,18,0.0,-1456905518400951414,0.715012788772583,23.19165832886938,-1.3080141892580923,9.7570963670366,78,32,0.0,16399,369985337943186,61,21.9,-257.4958801269531,1.0779999494552612,16,0.0,0.0,1575420030,,,,0,,1,-48.89,18.299999999999997,0.0,0.0,,,C,1420546147983049,1,9789461.188846612,-14760355.260911996,20011640.846069332,2483.9005759632837,-119.98470081551643,-1339.9361950372277,-12445.48814777617,0.006234806576685514,0.000000021420419216156006,0.000000007450580596923828,-0.00000011920928955078125,0.0,122880.0,0.0,-262144.0,196608.0
Raw,1773902767412,1032467012000000,18,0.0,-1456905518400951414,0.715012788772583,23.19165832886938,-1.3080141892580923,9.7570963670366,78,6,0.0,49359,35167338280329,31,27.7,767.6073608398438,0.6664999723434448,16,0.0,0.0,1599750020,,,,0,,3,-46.36,23.7,4866.4150390625,10.675360679626465,,,C,1420546147983049,1,,,,,,,,,0.000000021420419216156006,0.000000007450580596923828,-0.00000011920928955078125,0.0,122880.0,0.0,-262144.0,196608.0
Raw,1773902767412,1032467012000000,18,0.0,-1456905518400951414,0.715012788772583,23.19165832886938,-1.3080141892580923,9.7570963670366,78,9,0.0,49359,35167344073482,92,19.7,-396.53033447265625,3.452500104904175,16,0.0,0.0,1600875010,,,,0,,3,-46.36,15.7,4866.4150390625,10.675360679626465,,,C,1420546147983049,1,,,,,,,,,0.000000021420419216156006,0.000000007450580596923828,-0.00000011920928955078125,0.0,122880.0,0.0,-262144.0,196608.0
Raw,1773902767412,1032467012000000,18,0.0,-1456905518400951414,0.715012788772583,23.19165832886938,-1.3080141892580923,9.7570963670366,78,19,0.0,49359,35167335602095,27,28.3,-807.111083984375,1.3440001010894775,16,0.0,0.0,1603687550,,,,0,,3,-46.36,24.3,4866.4150390625,10.675360679626465,,,C,1420546147983049,1,,,,,,,,,0.000000021420419216156006,0.000000007450580596923828,-0.00000011920928955078125,0.0,122880.0,0.0,-262144.0,196608.0
Raw,1773902767412,1032467012000000,18,0.0,-1456905518400951414,0.715012788772583,23.19165832886938,-1.3080141892580923,9.7570963670366,78,7,0.0,49359,35167343140579,106,18.9,90.13505554199219,3.5510001182556152,16,0.0,0.0,1604812540,,,,0,,3,-46.36,14.899999999999999,4866.4150390625,10.675360679626465,,,C,1420546147983049,1,,,,,,,,,0.000000021420419216156006,0.000000007450580596923828,-0.00000011920928955078125,0.0,122880.0,0.0,-262144.0,196608.0
Raw,1773902767412,1032467012000000,18,0.0,-1456905518400951414,0.715012788772583,23.19165832886938,-1.3080141892580923,9.7570963670366,78,45,0.0,16399,369971338621222,35,27.0,-223.24591064453125,0.6514999866485596,16,0.0,0.0,1561097980,,,,0,,5,-53.74,22.7,-479.8863220214844,8.848020553588867,,,I,1420546147983049,1,15635568.851432638,-6246660.885230143,22242558.620106947,150.7102851776512,2541.332863520837,609.7152136475081,-225288.2973680612,-0.006040932144969702,0.000000021420419216156006,0.000000007450580596923828,-0.00000011920928955078125,0.0,122880.0,0.0,-262144.0,196608.0
Raw,1773902767412,1032467012000000,18,0.0,-1456905518400951414,0.715012788772583,23.19165832886938,-1.3080141892580923,9.7570963670366,78,36,0.0,16399,369971338862323,61,23.2,250.7939910888672,0.9014999866485596,16,0.0,0.0,1561097980,,,,0,,5,-53.74,18.9,-479.8863220214844,8.848020553588867,,,I,1420546147983049,1,14752436.303668123,13572914.815987393,19436748.133171678,28.36025612049763,2221.20671253039,-1572.4792596855036,88463.76923854659,-0.0007173984486144036,0.000000021420419216156006,0.000000007450580596923828,-0.00000011920928955078125,0.0,122880.0,0.0,-262144.0,196608.0
Raw,1773902767412,1032467012000000,18,0.0,-1456905518400951414,0.715012788772583,23.19165832886938,-1.3080141892580923,9.7570963670366,78,30,0.0,16399,369971336011115,61,22.6,-40.827598571777344,0.999500036239624,16,0.0,0.0,1561097980,,,,0,,5,-53.74,18.3,-479.8863220214844,8.848020553588867,,,I,1420546147983049,1,12087012.706909277,18800823.91734492,16678749.60515815,-1784.9818808909954,-693.4293561019349,2075.2733600612773,122778.85307383013,0.0023416833573719487,0.000000021420419216156006,0.000000007450580596923828,-0.00000011920928955078125,0.0,122880.0,0.0,-262144.0,196608.0
Raw,1773902767412,1032467012000000,18,0.0,-1456905518400951414,0.715012788772583,23.19165832886938,-1.3080141892580923,9.7570963670366,78,29,0.0,16399,369971333992428,24,30.1,-538.48828125,1.2529375553131104,16,0.0,0.0,1561097980,,,,0,,5,-53.74,25.8,-479.8863220214844,8.848020553588867,,,I,1420546147983049,1,24846853.59277984,12614894.399152625,1462189.6158839762,-225.07883726394442,86.1205516713901,3061.591537995589,173410.40509823768,0.001564676727866754,0.000000021420419216156006,0.000000007450580596923828,-0.00000011920928955078125,0.0,122880.0,0.0,-262144.0,196608.0
Raw,1773902767412,1032467012000000,18,0.0,-1456905518400951414,0.715012788772583,23.19165832886938,-1.3080141892580923,9.7570963670366,78,26,0.0,16399,369971324877441,61,22.7,-527.3020629882812,1.0175000429153442,16,0.0,0.0,1561097980,,,,0,,5,-53.74,18.4,-479.8863220214844,8.848020553588867,,,I,1420546147983049,1,6412816.667630284,-24613413.610398624,11419023.566337658,251.35084392903684,1295.5299627774082,2648.5111771537304,-183601.45187403783,-0.0017735718574840575,0.000000021420419216156006,0.000000007450580596923828,-0.00000011920928955078125,0.0,122880.0,0.0,-262144.0,196608.0
Raw,1773902767412,1032467012000000,18,0.0,-1456905518400951414,0.715012788772583,23.19165832886938,-1.3080141892580923,9.7570963670366,78,22,0.0,16399,369971327587304,70,21.8,614.5936279296875,1.0929999351501465,16,0.0,0.0,1561097980,,,,0,,5,-53.74,17.5,-479.8863220214844,8.848020553588867,,,I,1420546147983049,1,24898195.226073284,-11332110.374093486,-5619357.867287616,-517.9645045016111,378.9048783612615,-3058.1170969036284,133503.43950540572,0.000721285498002544,0.000000021420419216156006,0.000000007450580596923828,-0.00000011920928955078125,0.0,122880.0,0.0,-262144.0,196608.0
Raw,1773902767412,1032467012000000,18,0.0,-1456905518400951414,0.715012788772583,23.19165832886938,-1.3080141892580923,9.7570963670366,78,21,0.0,16399,369971330851223,40,25.5,302.5582275390625,0.7985000014305115,16,0.0,0.0,1561097980,,,,0,,5,-53.74,21.2,-479.8863220214844,8.848020553588867,,,I,1420546147983049,1,16130955.97555155,-19464859.107398376,11877020.150339235,1164.0644975304056,-689.7345177695764,-2710.612394538088,-260111.3559945295,0.0011078686220571399,0.000000021420419216156006,0.000000007450580596923828,-0.00000011920928955078125,0.0,122880.0,0.0,-262144.0,196608.0
Raw,1773902767412,1032467012000000,18,0.0,-1456905518400951414,0.715012788772583,23.19165832886938,-1.3080141892580923,9.7570963670366,78,7,0.0,17423,369985329163610,40,25.6,492.4468994140625,0.04856027662754059,16,0.0,0.0,1575420030,,,,0,,6,-52.65,21.3,3.8951048851013184,9.21075439453125,,,C,1420546147983049,1,29492356.933322974,984110.6980919803,2465181.433813234,252.2984777881867,-54.09236414088941,-3004.7427254110125,-15475.954417171344,-0.0006820289872848662,0.000000021420419216156006,0.000000007450580596923828,-0.00000011920928955078125,0.0,122880.0,0.0,-262144.0,196608.0
Raw,1773902767412,1032467012000000,18,0.0,-1456905518400951414,0.715012788772583,23.19165832886938,-1.3080141892580923,9.7570963670366,78,15,0.0,17423,369985317031217,70,22.2,-547.5034790039062,1.0069999694824219,16,0.0,0.0,1575420030,,,,0,,6,-52.65,17.9,3.8951048851013184,9.21075439453125,,,C,1420546147983049,1,16665353.972313564,22637504.97313573,-9236733.332400152,524.1734762462515,783.5714663202623,2865.721442978708,-73133.2432909817,-0.0009121425537159666,0.000000021420419216156006,0.000000007450580596923828,-0.00000011920928955078125,0.0,122880.0,0.0,-262144.0,196608.0
Raw,1773902767412,1032467012000000,18,0.0,-1456905518400951414,0.715012788772583,23.19165832886938,-1.3080141892580923,9.7570963670366,78,21,0.0,17423,369985321367440,21,31.2,-456.71905517578125,0.046105485409498215,16,0.0,0.0,1575420030,,,,0,,6,-52.65,26.9,3.8951048851013184,9.21075439453125,,,C,1420546147983049,1,19032190.359960884,-22397934.70775702,3495147.2815501764,-252.10114446046282,251.4396300497954,2978.739439603948,-218575.00089419415,-0.0007793442055117339,0.000000021420419216156006,0.000000007450580596923828,-0.00000011920928955078125,0.0,122880.0,0.0,-262144.0,196608.0
Raw,1773902767412,1032467012000000,18,0.0,-1456905518400951414,0.715012788772583,23.19165832886938,-1.3080141892580923,9.7570963670366,78,27,0.0,17423,369985333294192,159,15.7,-154.061767578125,4.737000465393066,16,0.0,0.0,1575420030,,,,0,,6,-52.65,11.399999999999999,3.8951048851013184,9.21075439453125,,,C,1420546147983049,1,21252738.22455129,-6132429.129354897,19659521.75334363,-1176.1355396635536,1584.2864842878012,1765.815087936252,-280984.41773081437,-0.003151868120767176,0.000000021420419216156006,0.000000007450580596923828,-0.00000011920928955078125,0.0,122880.0,0.0,-262144.0,196608.0
Raw,1773902767412,1032467012000000,18,0.0,-1456905518400951414,0.715012788772583,23.19165832886938,-1.3080141892580923,9.7570963670366,78,29,0.0,17423,369985332089583,61,22.4,-6.2226033210754395,1.005500078201294,16,0.0,0.0,1575420030,,,,0,,6,-52.65,18.099999999999998,3.8951048851013184,9.21075439453125,,,C,1420546147983049,1,19608941.88699076,-11512716.128495634,18952101.864511766,1895.5228357111068,138.65312732587427,-1877.281603996668,-56557.743248697334,-0.001074275111022871,0.000000021420419216156006,0.000000007450580596923828,-0.00000011920928955078125,0.0,122880.0,0.0,-262144.0,196608.0
Raw,1773902767412,1032467012000000,18,0.0,-1456905518400951414,0.715012788772583,23.19165832886938,-1.3080141892580923,9.7570963670366,78,30,0.0,17423,369985331599684,92,20.1,284.6793212890625,1.1740000247955322,16,0.0,0.0,1575420030,,,,0,,6,-52.65,15.8,3.8951048851013184,9.21075439453125,,,C,1420546147983049,1,11414438.418487854,12962810.834153205,24022726.31713857,-1401.9648204268824,1963.0033544240127,-391.9500552705544,-254394.64124775358,-0.012121059175115079,0.000000021420419216156006,0.000000007450580596923828,-0.00000011920928955078125,0.0,122880.0,0.0,-262144.0,196608.0
Raw,1773902767412,1032467012000000,18,0.0,-1456905518400951414,0.715012788772583,23.19165832886938,-1.3080141892580923,9.7570963670366,78,11,0.0,81935,369985332160426,9,26.1,-483.65081787109375,0.048372019082307816,16,0.0,0.0,1176450050,,,,0,,1,-39.75,21.200000000000003,-9.209717750549316,6.073119163513184,,,Q,1420546147983049,1,11768811.0586625,23559254.146765757,3786309.4093364957,-474.1767323644916,-260.1757456920295,3129.398682758595,-120655.6692917238,0.004026105103548616,0.000000021420419216156006,0.000000007450580596923828,-0.00000011920928955078125,0.0,122880.0,0.0,-262144.0,196608.0
Raw,1773902767412,1032467012000000,18,0.0,-1456905518400951414,0.715012788772583,23.19165832886938,-1.3080141892580923,9.7570963670366,78,24,0.0,81935,369985341757030,5,33.8,502.4090270996094,0.049614787101745605,16,0.0,0.0,1176450050,,,,0,,1,-39.75,28.9,-9.209717750549316,6.073119163513184,,,Q,1420546147983049,1,,,,,,,,,0.000000021420419216156006,0.000000007450580596923828,-0.00000011920928955078125,0.0,122880.0,0.0,-262144.0,196608.0
Raw,1773902767412,1032467012000000,18,0.0,-1456905518400951414,0.715012788772583,23.19165832886938,-1.3080141892580923,9.7570963670366,78,25,0.0,81935,369985343481017,10,25.8,-380.13702392578125,0.09524752199649811,16,0.0,0.0,1176450050,,,,0,,1,-39.75,20.9,-9.209717750549316,6.073119163513184,,,Q,1420546147983049,1,17527508.758960597,-10857412.964496743,16218488.263762575,-649.0699931912218,2058.742267808031,2056.1250086216965,130792.11011841545,-0.0020379399502417073,0.000000021420419216156006,0.000000007450580596923828,-0.00000011920928955078125,0.0,122880.0,0.0,-262144.0,196608.0
Raw,1773902767412,1032467012000000,18,0.0,-1456905518400951414,0.715012788772583,23.19165832886938,-1.3080141892580923,9.7570963670366,78,32,0.0,81935,369985337943246,14,22.7,-256.0766906738281,1.037000060081482,16,0.0,0.0,1176450050,,,,0,,1,-39.75,17.799999999999997,-9.209717750549316,6.073119163513184,,,Q,1420546147983049,1,9789461.188995691,-14760355.260919167,20011640.845988926,2483.900575953091,-119.98470082346174,-1339.936195062306,-12445.488147775794,0.006234806576685514,0.000000021420419216156006,0.000000007450580596923828,-0.00000011920928955078125,0.0,122880.0,0.0,-262144.0,196608.0
Raw,1773902767412,1032467012000000,18,0.0,-1456905518400951414,0.715012788772583,23.19165832886938,-1.3080141892580923,9.7570963670366,78,7,0.0,81935,369985329163601,8,28.6,492.4618225097656,0.032685067504644394,16,0.0,0.0,1176450050,,,,0,,6,-39.75,23.3,-9.385721206665039,51.46556091308594,,,Q,1420546147983049,1,29492356.933321588,984110.6980922455,2465181.4338298216,252.2984777898642,-54.092364140632306,-3004.7427254108034,-15476.99740448038,-0.0006820289872848662,0.000000021420419216156006,0.000000007450580596923828,-0.00000011920928955078125,0.0,122880.0,0.0,-262144.0,196608.0
Raw,1773902767412,1032467012000000,18,0.0,-1456905518400951414,0.715012788772583,23.19165832886938,-1.3080141892580923,9.7570963670366,78,21,0.0,81935,369985321367443,4,34.9,-456.7015686035156,3.8398947715759277,16,0.0,0.0,1176450050,,,,0,,6,-39.75,29.599999999999998,-9.385721206665039,51.46556091308594,,,Q,1420546147983049,1,19032190.359959878,-22397934.70775614,3495147.281561224,-252.10114446103543,251.4396300507678,2978.739439603749,-218575.21331711317,-0.0007793442346155643,0.000000021420419216156006,0.000000007450580596923828,-0.00000011920928955078125,0.0,122880.0,0.0,-262144.0,196608.0
Raw,1773902767412,1032467012000000,18,0.0,-1456905518400951414,0.715012788772583,23.19165832886938,-1.3080141892580923,9.7570963670366,78,27,0.0,81935,369985333294263,4,34.9,-153.9627685546875,0.03547423332929611,16,0.0,0.0,1176450050,,,,0,,6,-39.75,29.599999999999998,-9.385721206665039,51.46556091308594,,,Q,1420546147983049,1,21252738.224467173,-6132429.129241571,19659521.75346993,-1176.1355396623221,1584.2864843044824,1765.8150879146256,-280984.57478277426,-0.003151868120767176,0.000000021420419216156006,0.000000007450580596923828,-0.00000011920928955078125,0.0,122880.0,0.0,-262144.0,196608.0
Raw,1773902767412,1032467012000000,18,0.0,-1456905518400951414,0.715012788772583,23.19165832886938,-1.3080141892580923,9.7570963670366,78,29,0.0,81935,369985332089615,14,22.7,-6.179579734802246,1.7195000648498535,16,0.0,0.0,1176450050,,,,0,,6,-39.75,17.4,-9.385721206665039,51.46556091308594,,,Q,1420546147983049,1,19608941.887045436,-11512716.12849167,18952101.864457585,1895.5228357060037,138.65312732123084,-1877.2816040050736,-56556.80102150229,-0.001070014805009123,0.000000021420419216156006,0.000000007450580596923828,-0.00000011920928955078125,0.0,122880.0,0.0,-262144.0,196608.0
Raw,1773902767412,1032467012000000,18,0.0,-1456905518400951414,0.715012788772583,23.19165832886938,-1.3080141892580923,9.7570963670366,78,30,0.0,81935,369985331599688,5,32.5,284.4991455078125,0.03754531219601631,16,0.0,0.0,1176450050,,,,0,,6,-39.75,27.2,-9.385721206665039,51.46556091308594,,,Q,1420546147983049,1,11414438.418480657,12962810.834163275,24022726.31713656,-1401.964820426006,1963.003354424391,-391.9500552724492,-254394.97884250295,-0.012121059175115079,0.000000021420419216156006,0.000000007450580596923828,-0.00000011920928955078125,0.0,122880.0,0.0,-262144.0,196608.0
Raw,1773902767412,1032467012000000,18,0.0,-1456905518400951414,0.715012788772583,23.19165832886938,-1.3080141892580923,9.7570963670366,78,34,0.0,81935,369985321522584,18,20.4,-403.6348876953125,1.9329999685287476,16,0.0,0.0,1176450050,,,,0,,6,-39.75,15.099999999999998,-9.385721206665039,51.46556091308594,,,Q,1420546147983049,1,5464967.113220029,27411268.512412768,9738208.56163396,-258.62536858235626,-957.0808002526865,2839.000690194509,-72714.52584344184,-0.0007251149800140411,0.000000021420419216156006,0.000000007450580596923828,-0.00000011920928955078125,0.0,122880.0,0.0,-262144.0,196608.0
Raw,1773902767412,1032467012000000,18,0.0,-1456905518400951414,0.715012788772583,23.19165832886938,-1.3080141892580923,9.7570963670366,78,22,0.0,16399,369971327587292,3,36.4,614.27978515625,0.0532379187643528,16,0.0,0.0,1176450050,,,,0,,5,-39.75,31.9,-463.27874755859375,56.02393341064453,,,P,1420546147983049,1,24898195.226079486,-11332110.374098059,-5619357.867250921,-517.9645044983945,378.9048783585905,-3058.117096904863,133503.4395054057,0.000721285498002544,0.000000021420419216156006,0.000000007450580596923828,-0.00000011920928955078125,0.0,122880.0,0.0,-262144.0,196608.0
Raw,1773902767412,1032467012000000,18,0.0,-1456905518400951414,0.715012788772583,23.19165832886938,-1.3080141892580923,9.7570963670366,78,29,0.0,16399,369971333992387,7,28.5,-538.5974731445312,0.06659547984600067,16,0.0,0.0,1176450050,,,,0,,5,-39.75,24.0,-463.27874755859375,56.02393341064453,,,P,1420546147983049,1,24846853.592789046,12614894.399149131,1462189.6157584563,-225.07883725118666,86.1205516767829,3061.5915379966896,173410.40509823762,0.0015646767569705844,0.000000021420419216156006,0.000000007450580596923828,-0.00000011920928955078125,0.0,122880.0,0.0,-262144.0,196608.0
Raw,1773902767412,1032467012000000,18,0.0,-1456905518400951414,0.715012788772583,23.19165832886938,-1.3080141892580923,9.7570963670366,78,30,0.0,16399,369971336011158,27,17.3,-40.25008773803711,4.515500068664551,16,0.0,0.0,1176450050,,,,0,,5,-39.75,12.8,-463.27874755859375,56.02393341064453,,,P,1420546147983049,1,12087012.70683248,18800823.917315125,16678749.605247382,-1784.9818809021292,-693.4293561013019,2075.273360048096,122778.85307383025,0.0023416833573719487,0.000000021420419216156006,0.000000007450580596923828,-0.00000011920928955078125,0.0,122880.0,0.0,-262144.0,196608.0
Raw,1773902767412,1032467012000000,18,0.0,-1456905518400951414,0.715012788772583,23.19165832886938,-1.3080141892580923,9.7570963670366,78,36,0.0,16399,369971338862269,14,21.9,250.7125701904297,1.118499994277954,16,0.0,0.0,1176450050,,,,0,,5,-39.75,17.4,-463.27874755859375,56.02393341064453,,,P,1420546147983049,1,14752436.303666612,13572914.815867428,19436748.133256588,28.36025611335711,2221.206712540135,-1572.4792596662853,88463.76923854662,-0.0007173984631663188,0.000000021420419216156006,0.000000007450580596923828,-0.00000011920928955078125,0.0,122880.0,0.0,-262144.0,196608.0
Raw,1773902767412,1032467012000000,18,0.0,-1456905518400951414,0.715012788772583,23.19165832886938,-1.3080141892580923,9.7570963670366,78,40,0.0,16399,369971276034907,20,18.9,230.65760803222656,2.2055001258850098,16,0.0,0.0,1176450050,,,,0,,5,-39.75,14.399999999999999,-463.27874755859375,56.02393341064453,,,P,1420546147983049,1,-19119371.916705836,20803285.305183735,31225666.098069455,-1216.2212674440761,469.7381228347135,-1073.5290416115042,-64906.92578656054,-0.0010171005633310415,0.000000021420419216156006,0.000000007450580596923828,-0.00000011920928955078125,0.0,122880.0,0.0,-262144.0,196608.0
Raw,1773902767412,1032467012000000,18,0.0,-1456905518400951414,0.715012788772583,23.19165832886938,-1.3080141892580923,9.7570963670366,78,45,0.0,16399,369971338621262,9,26.3,-222.5691680908203,0.08737201988697052,16,0.0,0.0,1176450050,,,,0,,5,-39.75,21.8,-463.27874755859375,56.02393341064453,,,P,1420546147983049,1,15635568.85143867,-6246660.88512849,22242558.620131336,150.71028518432058,2541.3328635232165,609.7152136311737,-225288.29736806144,-0.006040932144969702,0.000000021420419216156006,0.000000007450580596923828,-0.00000011920928955078125,0.0,122880.0,0.0,-262144.0,196608.0
